stop_id,stop_name,stop_lat,stop_lon
102-РО ОУ,2,42.735761,23.305201
БЛ. 411 Ж.К. МЛАДОСТ-4,3,42.636966,23.380375
БЛ. 411 Ж.К. МЛАДОСТ-4,4,42.637973,23.381173
БЛ. 411 Ж.К. МЛАДОСТ-4,5,42.637216,23.381403
12-ТИ ДКЦ,6,42.71924,23.268294
12-ТИ ДКЦ,7,42.718784,23.268934
131-ВО СОУ,8,42.634732,23.380186
131-ВО СОУ,9,42.6361,23.380428
14-ТИ ДКЦ,10,42.679723,23.311364
14-ТИ ДКЦ,11,42.678842,23.310551
140-ТО СОУ,12,42.745959,23.274844
140-ТО СОУ,13,42.74616,23.274789
163-ТО ОУ,14,42.645368,23.404928
163-ТО ОУ,15,42.645224,23.404784
20-ТИ ДКЦ,16,42.671643,23.283678
20-ТИ ДКЦ,17,42.67098,23.28236
24-ТИ ДКЦ,18,42.736997,23.301037
24-ТИ ДКЦ,19,42.736791,23.301641
26-ТИ ДКЦ,20,42.725602,23.254938
26-ТИ ДКЦ,21,42.725101,23.255578
ОНКОЛОГИЧЕН ДИСПАНСЕР,22,42.654884,23.370177
ОНКОЛОГИЧЕН ДИСПАНСЕР,23,42.654595,23.369079
28-МИ ДКЦ,24,42.664807,23.406127
28-МИ ДКЦ,25,42.666206,23.406097
28-МИ ДКЦ,26,42.665548,23.406848
28-МИ ДКЦ,27,42.665749,23.406313
28-МИ ДКЦ,28,42.66544,23.407377
36-ТИ ПОЩЕНСКИ КЛОН,29,42.720665,23.25278
36-ТИ ПОЩЕНСКИ КЛОН,30,42.72074,23.252905
36-ТО СОУ,31,42.674309,23.287207
36-ТО СОУ,32,42.673481,23.285933
КВ. ГАРА ИСКЪР,33,42.662052,23.41561
КВ. ГАРА ИСКЪР,34,42.662046,23.415455
КВ. ГАРА ИСКЪР,35,42.662581,23.414805
КВ. ГАРА ИСКЪР,36,42.662305,23.414963
53-ТО ОУ,37,42.676841,23.234969
53-ТО ОУ,38,42.677147,23.23518
60-ТО ОУ,39,42.742288,23.345738
60-ТО ОУ,40,42.741856,23.345288
66-ТО СОУ,41,42.672423,23.261753
66-ТО СОУ,42,42.672646,23.2622
8-МИ ДКЦ,43,42.728263,23.29121
8-МИ ДКЦ,44,42.730266,23.293837
УЛ. ПОЩЕНСКА,45,42.721771,23.342135
УЛ. ПОЩЕНСКА,46,42.721707,23.341948
АВТОБАЗА ИСКЪР,47,42.678037,23.389798
АВТОРЕМОНТНА БАЗА,48,42.626063,23.446359
АВТОРЕМОНТНА БАЗА,49,42.625556,23.446831
АВТОСТАНЦИЯ БАНКЯ,50,42.708453,23.15252
АВТОСТАНЦИЯ БАНКЯ,51,42.708236,23.152225
АВТОСТАНЦИЯ ГЕО МИЛЕВ,52,42.678057,23.370444
АВТОСТАНЦИЯ ГЕО МИЛЕВ,53,42.677538,23.37065
АВТОСТАНЦИЯ ИЗТОК,56,42.703556,23.386843
АВТОСТАНЦИЯ ИЗТОК,57,42.703915,23.386993
АВТОСТАНЦИЯ ИЛИЯНЦИ,58,42.754514,23.32073
МЕТРОСТАНЦИЯ ОБЕЛЯ,59,42.741998,23.277789
МЕТРОСТАНЦИЯ ОБЕЛЯ,60,42.742178,23.277625
АВТОСТАНЦИЯ ОРЛАНДОВЦИ,62,42.714947,23.342054
АВТОСТАНЦИЯ ОРЛАНДОВЦИ,63,42.71573,23.342516
БУЛ. ИСТОРИЯ СЛАВЯНОБЪЛГАРСКА,65,42.715698,23.323995
БУЛ. ИСТОРИЯ СЛАВЯНОБЪЛГАРСКА,66,42.715214,23.324621
НБУ,67,42.676544,23.253228
РЦ ПО ПРОТЕЗИРАНЕ,68,42.676742,23.249642
НБУ,69,42.677701,23.253841
РЦ ПО ПРОТЕЗИРАНЕ,70,42.676299,23.249563
АЛБЕНА - ПО ЖЕЛАНИЕ,71,42.563254,23.363143
АЛБЕНА - ПО ЖЕЛАНИЕ,72,42.562978,23.363451
БУЛ. ПЕЙО ЯВОРОВ,73,42.683091,23.348322
БУЛ. ПЕЙО ЯВОРОВ,74,42.682331,23.348888
АНЕВА ЧЕШМА - ПО ЖЕЛАНИЕ,75,42.54031,23.364946
АНЕВА ЧЕШМА - ПО ЖЕЛАНИЕ,76,42.539881,23.364671
АП ДРУЖБА,77,42.649228,23.416362
АП ДРУЖБА,78,42.649169,23.416157
АП ЗЕМЛЯНЕ,79,42.683127,23.277827
АП ЗЕМЛЯНЕ,80,42.682742,23.278719
АП МАЛАШЕВЦИ,81,42.715318,23.360315
УЛ. Н. ХРЕЛКОВ,82,42.687529,23.232207
УЛ. Н. ХРЕЛКОВ,83,42.687165,23.232591
КОМПЛЕКС НА БАН,84,42.653744,23.388685
КОМПЛЕКС НА БАН,86,42.653718,23.389288
БАЗА ГАЗСТРОЙ - ПО ЖЕЛАНИЕ,87,42.731166,23.572686
БАЗА ГАЗСТРОЙ - ПО ЖЕЛАНИЕ,88,42.731256,23.572572
ТЕХНОТЕСТ,89,42.677199,23.399163
ТЕХНОТЕСТ,90,42.677253,23.397974
ТЕХНОТЕСТ,91,42.678275,23.399626
31-ВО СУЧЕМ,92,42.687373,23.352458
НЦ ПО РЕХАБИЛИТАЦИЯ,94,42.676293,23.268312
НЦ ПО РЕХАБИЛИТАЦИЯ,95,42.676943,23.267414
НЦ ПО РЕХАБИЛИТАЦИЯ,96,42.676541,23.268081
НЦ ПО РЕХАБИЛИТАЦИЯ,97,42.676932,23.268021
НЦ ПО РЕХАБИЛИТАЦИЯ,98,42.677635,23.268407
БАНЯТА КВ. ГНИЛЯНЕ,99,42.800588,23.379945
БАНЯТА КВ. ГНИЛЯНЕ,100,42.800207,23.380211
БАНЯ ПАНЧАРЕВО,101,42.602647,23.402778
БАНЯ ПАНЧАРЕВО,102,42.602854,23.402514
БАРАЖА ЯЗ. ПАСАРЕЛ - ПО ЖЕЛАНИЕ,103,42.549646,23.471291
БАРАЖА ЯЗ. ПАСАРЕЛ,104,42.549624,23.471536
БЛ. 33 Ж.К. СЛАТИНА,105,42.688503,23.374777
ГРОБИЩЕН ПАРК БАНКЯ,106,42.714355,23.164586
ГРОБИЩЕН ПАРК БАНКЯ,107,42.714578,23.16566
БЛ. 539 Ж.К.ЛЮЛИН-5,108,42.711018,23.24253
БЛ. 33 Ж.К. СЛАТИНА,109,42.687944,23.375353
БЕТОНОВ ВЪЗЕЛ,110,42.736464,23.325103
БЕТОНОВ ВЪЗЕЛ,111,42.664867,23.452926
БЕТОНОВ ВЪЗЕЛ,112,42.665074,23.452826
БЕТОНОВ ВЪЗЕЛ - ПО ЖЕЛАНИЕ,113,42.753883,23.275594
БЕТОНОВ ВЪЗЕЛ - ПО ЖЕЛАНИЕ,114,42.754314,23.27549
БЕТОНОВ ВЪЗЕЛ,115,42.736394,23.324838
БИОМЕТ ЕООД - ПО ЖЕЛАНИЕ,116,42.80123,23.26421
БИОМЕТ ЕООД - ПО ЖЕЛАНИЕ,117,42.801143,23.264178
109-ТО ОУ,118,42.688955,23.370707
109-ТО ОУ,119,42.690172,23.370186
БКС СРЕДЕЦ,120,42.67932,23.38747
БКС СРЕДЕЦ,121,42.679546,23.387373
БЛ. 1 Ж.К. ГОРУБЛЯНЕ,122,42.635242,23.404074
БЛ. 22 Ж.К. ДИАНАБАД,123,42.658249,23.341996
БЛ. 22 Ж.К. ДИАНАБАД БЛ. 1,124,42.65819,23.342572
БЛ. 1 Ж.К. ГОРУБЛЯНЕ,125,42.635019,23.404232
БЛ. 10 Ж.К. ЛЕВСКИ-Г,126,42.713114,23.380338
БЛ. 10 Ж.К. ЛЕВСКИ-Г,127,42.713084,23.3798
БЛ. 108 Ж.К. ДРУЖБА-1,128,42.66824,23.392423
БЛ. 108 Ж.К. ДРУЖБА-1,129,42.667454,23.391925
БЛ. 11 Ж.К. ЛЕВСКИ-В,130,42.709751,23.384371
БЛ. 11 Ж.К. ЛЕВСКИ-В,131,42.70916,23.384113
БЛ. 111 Ж.К. ОБЕЛЯ-1,132,42.737962,23.270897
БЛ. 111 Ж.К. ОБЕЛЯ-1,133,42.737306,23.270112
БЛ. 135 Ж.К. ЛЮЛИН-10,136,42.71502,23.276718
БЛ. 115 Ж.К. ЛЮЛИН-10,137,42.716629,23.275552
БЛ. 135 Ж.К. ЛЮЛИН-10,138,42.71511,23.276443
БЛ. 15 Ж.К. ХР. СМИРНЕНСКИ,139,42.681097,23.375087
БЛ. 15 Ж.К. ХР. СМИРНЕНСКИ,140,42.681746,23.37548
БЛ. 155 Ж.К. ДРУЖБА-1,141,42.657885,23.397913
БЛ. 155 Ж.К. ДРУЖБА-1,142,42.658043,23.397422
БЛ. 162 Ж.К. ДРУЖБА-1,143,42.657334,23.401486
БЛ. 162 Ж.К. ДРУЖБА-1,144,42.657382,23.402751
БЛ. 162 Ж.К. ДРУЖБА-1,145,42.658123,23.402174
БЛ. 170 Ж.К. ДРУЖБА-1,146,42.655736,23.407294
БЛ. 170 Ж.К. ДРУЖБА-1,147,42.656375,23.405868
БЛ. 20 Ж.К. СВОБОДА,148,42.739758,23.305767
148-МО СОУ,149,42.685184,23.371858
148-МО СОУ,150,42.68454,23.371789
БЛ. 20 Ж.К. СВОБОДА,151,42.739743,23.305284
БЛ. 264 Ж.К. ЛЮЛИН-2,152,42.72801,23.246281
БЛ. 264 Ж.К. ЛЮЛИН-2,153,42.727733,23.245864
БЛ. 202 Ж.К. МЛАДОСТ-2,154,42.637468,23.370288
БЛ. 202 Ж.К. МЛАДОСТ-2,155,42.637159,23.370827
БЛ. 205 Ж.К. МЛАДОСТ-2,157,42.641788,23.370943
БЛ. 206 Ж.К. МЛАДОСТ-2,158,42.642254,23.368399
БЛ. 206 Ж.К. ДРУЖБА-2,159,42.655083,23.399576
БЛ. 206 Ж.К. ДРУЖБА-2,160,42.655588,23.398982
БЛ. 206 Ж.К. МЛАДОСТ-2,161,42.642236,23.368124
БЛ. 207 Ж.К. ОБЕЛЯ-2,162,42.746491,23.269307
БЛ. 207 Ж.К. ОБЕЛЯ-2,163,42.746091,23.270295
БЛ. 214 Ж.К. БОРОВО,164,42.669103,23.280148
БЛ. 214 Ж.К. БОРОВО,165,42.668786,23.279649
143-ТО ОУ,166,42.702133,23.355263
БЛ. 222 Ж.К. МЛАДОСТ-2,167,42.644369,23.374476
БЛ. 222 Ж.К. МЛАДОСТ-2,168,42.645176,23.375313
МЕТРОСТАНЦИЯ АЛ. МАЛИНОВ,169,42.646128,23.375554
МЕТРОСТАНЦИЯ АЛ. МАЛИНОВ,170,42.64739,23.376668
БЛ. 241 Ж.К. ОБЕЛЯ-2,171,42.748286,23.276115
БЛ. 241 Ж.К. ОБЕЛЯ-2,172,42.748217,23.276987
БЛ. 245 Ж.К. ОБЕЛЯ-2,173,42.746941,23.279584
БЛ. 25 Ж.К. ОВЧА КУПЕЛ-2,174,42.688837,23.242859
БЛ. 25 Ж.К. ОВЧА КУПЕЛ-2,175,42.688658,23.241609
БЛ. 255 Ж.К. ДРУЖБА-2,176,42.652731,23.403909
ПРОМИШЛЕНА ЗОНА Ж.К. ДРУЖБА 1,177,42.671471,23.382273
БЛ. 255 Ж.К. ДРУЖБА-2,178,42.651859,23.404811
БЛ. 28 Ж.К. ЛЕВСКИ-Г,180,42.713271,23.384959
БЛ. 3 Ж.К. ДРУЖБА-1,182,42.665741,23.391408
БЛ. 3 Ж.К. БОТУНЕЦ-1,183,42.735952,23.512805
БЛ. 3 Ж.К. ДРУЖБА-1,184,42.664985,23.390785
БЛ. 301 Ж.К. ЛЮЛИН-3,185,42.723321,23.248132
БЛ. 301 Ж.К. ЛЮЛИН-3,186,42.722833,23.248805
БЛ. 302 Ж.К. НАДЕЖДА-3,187,42.732273,23.287657
БЛ. 302 Ж.К. НАДЕЖДА-3,188,42.73247,23.287636
ТЕХНО ПАРК СОФИЯ,189,42.649446,23.408763
ТЕХНО ПАРК СОФИЯ,190,42.64891,23.40917
БЛ. 32 Ж.К. ОВЧА КУПЕЛ-2,191,42.689313,23.246648
БЛ. 32 Ж.К. ОВЧА КУПЕЛ-2,192,42.689276,23.245341
БЛ. 327 Ж.К. МЛАДОСТ-3,193,42.640274,23.377237
БЛ. 327 Ж.К. МЛАДОСТ-3,194,42.640269,23.376222
БЛ. 35 Ж.К. ЗАХАРНА ФАБРИКА,195,42.716897,23.286743
БЛ. 35 Ж.К. ЗАХАРНА ФАБРИКА,196,42.717113,23.287516
БЛ. 350 Ж.К. ЛЮЛИН-3,197,42.725869,23.244595
БЛ. 350 Ж.К. ЛЮЛИН-3,198,42.724976,23.245084
БЛ. 350 Ж.К. ЛЮЛИН-3,199,42.724995,23.244824
БЛ. 350 Ж.К. ЛЮЛИН-3,200,42.724929,23.243657
БЛ. 351Б Ж.К. МЛАДОСТ-3,201,42.637805,23.385256
БЛ. 351Б Ж.К. МЛАДОСТ-3,202,42.637294,23.38465
БЛ. 39 Ж.К. ГОРУБЛЯНЕ,203,42.634305,23.398958
БЛ. 39 Ж.К. ГОРУБЛЯНЕ,204,42.63423,23.399286
МБАЛ ТОКУДА БОЛНИЦА,205,42.667542,23.325443
МБАЛ ТОКУДА БОЛНИЦА,206,42.667775,23.327139
БЛ. 402 Ж.К. ЛЮЛИН-4,207,42.719673,23.239526
БЛ. 41 Ж.К. МЛАДОСТ-1,209,42.656586,23.376259
БЛ. 41 Ж.К. МЛАДОСТ-1,210,42.655912,23.375173
ТЪРГОВСКИ Ц-Р ОВЧА КУПЕЛ,211,42.690424,23.255179
ТЪРГОВСКИ Ц-Р ОВЧА КУПЕЛ,212,42.690376,23.253751
БЛ. 427 Ж.К. МЛАДОСТ-4,213,42.633295,23.376693
БЛ. 427 Ж.К. МЛАДОСТ-4,214,42.633215,23.376882
БЛ. 43 Ж.К. ГОРУБЛЯНЕ,215,42.635411,23.401159
БЛ. 43 Ж.К. ГОРУБЛЯНЕ,216,42.635277,23.401027
БЛ. 43 Ж.К. МЛАДОСТ-1,217,42.651676,23.379044
БЛ. 43 Ж.К. МЛАДОСТ-1,218,42.652517,23.379934
БЛ. 437 Ж.К. МЛАДОСТ-4,219,42.630811,23.375149
БЛ. 437 Ж.К. МЛАДОСТ-4,220,42.630878,23.374975
БЛ. 458 Ж.К. НАДЕЖДА-4,221,42.737614,23.296731
БЛ. 458 Ж.К. НАДЕЖДА-4,222,42.737536,23.298451
БЛ. 465 Ж.К. МЛАДОСТ-4,223,42.628157,23.383303
БЛ. 465 Ж.К. МЛАДОСТ-4,224,42.628735,23.383071
БЛ. 501 Ж.К. ДРУЖБА-2,225,42.643974,23.41227
БЛ. 501 Ж.К. ДРУЖБА-2,226,42.643232,23.412243
БЛ. 505 Ж.К. ОВЧА КУПЕЛ-1,227,42.686755,23.255457
БЛ. 505 Ж.К. ОВЧА КУПЕЛ-1,228,42.685675,23.255562
БЛ. 519 Ж.К. ОВЧА КУПЕЛ-1,229,42.689658,23.259852
БЛ. 519 Ж.К. ОВЧА КУПЕЛ-1,230,42.689888,23.259666
БЛ. 527 Ж.К. ОВЧА КУПЕЛ-1,231,42.689409,23.254781
БЛ. 527 Ж.К. ОВЧА КУПЕЛ-1,232,42.689035,23.254699
МЕТРОСТАНЦИЯ АЛ. МАЛИНОВ,233,42.648415,23.375889
МЕТРОСТАНЦИЯ АЛ. МАЛИНОВ,234,42.648273,23.375722
МЕТРОСТАНЦИЯ ДРУЖБА,235,42.659206,23.395499
МЕТРОСТАНЦИЯ ДРУЖБА,236,42.660827,23.394048
БЛ. 6 Ж.К. МЛАДОСТ-1,238,42.658172,23.377756
БЛ. 603 Ж.К. ВРЪБНИЦА-2,239,42.7387,23.294657
БЛ. 603 Ж.К. ВРЪБНИЦА-2,240,42.739296,23.294514
БЛ. 620 Ж.К. ЛЮЛИН-6,241,42.708807,23.247396
БЛ. 620 Ж.К. ЛЮЛИН-6,242,42.708647,23.248352
БЛ. 630 Ж.К. ЛЮЛИН-6,243,42.708554,23.251912
БЛ. 630 Ж.К. ЛЮЛИН-6,244,42.708705,23.251803
БЛ. 66 Ж.К. МЛАДОСТ-1,245,42.65055,23.376566
БЛ. 66 Ж.К. МЛАДОСТ-1,246,42.65105,23.376298
БЛ. 69 Ж.К. МЛАДОСТ-1,247,42.649649,23.369164
БЛ. 69 Ж.К. МЛАДОСТ-1,248,42.649086,23.37217
БЛ. 7 Ж.К. ХР. СМИРНЕНСКИ,249,42.683617,23.37622
БЛ. 7 Ж.К. ХР. СМИРНЕНСКИ,250,42.684518,23.376746
БЛ. 706 Ж.К. ЛЮЛИН-7,251,42.713465,23.264641
БЛ. 706 Ж.К. ЛЮЛИН-7,252,42.713596,23.264685
БЛ. 715 Ж.К. ЛЮЛИН-7,253,42.714785,23.260137
БЛ. 715 Ж.К. ЛЮЛИН-7,254,42.714744,23.258662
БЛ. 89 Ж.К. ДРУЖБА-1,255,42.670807,23.386488
БЛ. 98 Ж.К. ДРУЖБА-1,256,42.66737,23.386533
БЛ. 98 Ж.К. ДРУЖБА-1,257,42.667805,23.386293
БОЛНИЦАТА С. ПОДГУМЕР,258,42.813402,23.407718
УЛ. ЗЕЛЕН БОР - ПО ЖЕЛАНИЕ,259,42.605876,23.34829
УЛ. ЗЕЛЕН БОР - ПО ЖЕЛАНИЕ,260,42.606575,23.347029
БОЯНСКА ЦЪРКВА,261,42.644221,23.266041
ГРОБИЩЕН ПАРК БОЯНА - ПО ЖЕЛАНИЕ,262,42.650777,23.278435
ГРОБИЩЕН ПАРК БОЯНА - ПО ЖЕЛАНИЕ,263,42.650835,23.279034
БОЯНСКО ХАНЧЕ,264,42.646601,23.266854
БОЯНСКО ХАНЧЕ,265,42.645497,23.268116
БОЯНСКО ХАНЧЕ,266,42.646342,23.267253
БОЯНСКО ХАНЧЕ,267,42.646571,23.267121
БУЛ. АКАД. ИВ. ГЕШОВ,268,42.679492,23.30373
БУЛ. АКАД. ИВ. ГЕШОВ,269,42.680042,23.302507
БУЛ. АКАД. ИВ. ГЕШОВ,270,42.67858,23.302499
БУЛ. АКАД. ИВ. ГЕШОВ,271,42.679112,23.301299
БУЛ. АКАД. ИВ. ГЕШОВ,272,42.679588,23.303554
БУЛ. АКАД. ИВ. ГЕШОВ,273,42.687104,23.300622
БУЛ. АКАД. ИВ. ГЕШОВ,274,42.686551,23.299648
БУЛ. АКАД. ИВ. ГЕШОВ,275,42.679251,23.301181
БУЛ. АЛ. ПУШКИН,276,42.662973,23.2657
БУЛ. АЛ. ПУШКИН,277,42.660328,23.264566
БУЛ. АЛ. ПУШКИН,278,42.662246,23.265365
БУЛ. АЛ. ПУШКИН,279,42.65983,23.26554
БУЛ. АЛ. СТАМБОЛИЙСКИ,280,42.698817,23.303886
БУЛ. АЛ. СТАМБОЛИЙСКИ,281,42.702773,23.285817
БУЛ. АЛ. СТАМБОЛИЙСКИ,282,42.701821,23.285406
БУЛ. АЛ. СТАМБОЛИЙСКИ,283,42.698015,23.309437
БУЛ. АЛ. СТАМБОЛИЙСКИ,284,42.699163,23.310041
БУЛ. АЛ. СТАМБОЛИЙСКИ,287,42.698536,23.302889
БУЛ. БРАТЯ БЪКСТОН,288,42.674751,23.279016
БУЛ. БРАТЯ БЪКСТОН,289,42.674571,23.278809
БУЛ. БЪЛГАРИЯ,290,42.672621,23.2937
БУЛ. БЪЛГАРИЯ,291,42.671243,23.295166
БУЛ. ВАРДАР,292,42.6959,23.286157
БУЛ. ВАРДАР,293,42.695519,23.288062
БУЛ. ВАРДАР,294,42.695713,23.287578
БУЛ. ВАРДАР,295,42.695725,23.286753
БУЛ. ВАРДАР,296,42.697717,23.286968
БУЛ. ВАСИЛ ЛЕВСКИ,297,42.698779,23.335465
БУЛ. ВАСИЛ ЛЕВСКИ,298,42.698767,23.335736
БУЛ. ВАСИЛ ЛЕВСКИ,299,42.688255,23.328706
БУЛ. ВАСИЛ ЛЕВСКИ,300,42.687992,23.329107
БУЛ. ВИТОША,301,42.683737,23.314744
БУЛ. ВИТОША,302,42.683705,23.314206
МЕТРОСТАНЦИЯ ХАДЖИ ДИМИТЪР,303,42.702511,23.352317
БУЛ. ВЪЗКРЕСЕНИЕ,304,42.694482,23.293032
БУЛ. ВЪЗКРЕСЕНИЕ,307,42.694465,23.292014
БУЛ. ГОЦЕ ДЕЛЧЕВ,308,42.671722,23.293853
БУЛ. ГОЦЕ ДЕЛЧЕВ,309,42.665922,23.301969
БУЛ. ГОЦЕ ДЕЛЧЕВ,310,42.665888,23.303136
БУЛ. ГОЦЕ ДЕЛЧЕВ,311,42.676533,23.289275
БУЛ. ГОЦЕ ДЕЛЧЕВ,312,42.671453,23.293827
БУЛ. ГОЦЕ ДЕЛЧЕВ,313,42.672539,23.294901
БУЛ. ГОЦЕ ДЕЛЧЕВ,314,42.672467,23.295057
БУЛ. Д-Р Г. М. ДИМИТРОВ,315,42.658893,23.344979
БУЛ. Д-Р Г. М. ДИМИТРОВ,316,42.659953,23.349003
БУЛ. Д-Р Г. М. ДИМИТРОВ,317,42.660342,23.347354
БУЛ. Д-Р Г. М. ДИМИТРОВ,318,42.658426,23.348426
БУЛ. ДЖАВАХАРЛАЛ НЕРУ,319,42.715462,23.261428
БУЛ. ДЖАВАХАРЛАЛ НЕРУ,320,42.715627,23.261226
БУЛ. ПЕТЪР ДЕРТЛИЕВ,321,42.710168,23.245466
БУЛ. ПЕТЪР ДЕРТЛИЕВ,322,42.710035,23.244424
БУЛ. КНЯГИНЯ МАРИЯ ЛУИЗА,323,42.712183,23.314926
БУЛ. КНЯГИНЯ МАРИЯ ЛУИЗА,324,42.712602,23.314862
БУЛ. К. ВЕЛИЧКОВ,325,42.706992,23.299978
БУЛ. К. ВЕЛИЧКОВ,326,42.700614,23.296459
БУЛ. К. ВЕЛИЧКОВ,327,42.700521,23.296841
БУЛ. К. ВЕЛИЧКОВ,328,42.70669,23.299919
БУЛ. ЛОМСКО ШОСЕ,329,42.732555,23.296596
БУЛ. ЛОМСКО ШОСЕ,330,42.734302,23.290801
УЛ. ХРИСТО СИЛЯНОВ,331,42.732787,23.295892
БУЛ. ЛОМСКО ШОСЕ,332,42.732578,23.296909
БУЛ. ЛОМСКО ШОСЕ,333,42.736055,23.293967
БУЛ. ЛОМСКО ШОСЕ,334,42.73597,23.294037
УЛ. ЛУИ ПАСТЬОР,335,42.713011,23.265877
УЛ. ЛУИ ПАСТЬОР,336,42.713228,23.265577
БУЛ. МАДРИД,337,42.69596,23.351815
БУЛ. МАДРИД,338,42.696286,23.35175
БУЛ. ГЕН.Н.СТОЛЕТОВ,340,42.711216,23.309483
БУЛ. НИКОЛА ВАПЦАРОВ,341,42.665518,23.318992
БУЛ. НИКОЛА ВАПЦАРОВ,342,42.66437,23.317475
БУЛ. НИКОЛА ВАПЦАРОВ,343,42.665366,23.317591
БУЛ. НИКОЛА ВАПЦАРОВ,344,42.665112,23.318526
БУЛ. НИКОЛА ПЕТКОВ,345,42.668725,23.254114
БУЛ. НИКОЛА ПЕТКОВ,346,42.66931,23.255658
БУЛ. НИКОЛА ПЕТКОВ,347,42.669643,23.254401
БУЛ. НИКОЛА ПЕТКОВ,348,42.665138,23.260116
БУЛ. НИКОЛА ПЕТКОВ,349,42.665345,23.260776
БУЛ. НИКОЛА ПЕТКОВ,350,42.66872,23.255193
МЕТРОСТАНЦИЯ ОВЧА КУПЕЛ,351,42.683115,23.270535
МЕТРОСТАНЦИЯ ОВЧА КУПЕЛ,352,42.683109,23.270264
БУЛ. ПЕНЧО СЛАВЕЙКОВ,355,42.68738,23.310805
БУЛ. ПЕНЧО СЛАВЕЙКОВ,356,42.68275,23.31444
БУЛ. ПЕНЧО СЛАВЕЙКОВ,357,42.683761,23.315555
БУЛ. ПЕНЧО СЛАВЕЙКОВ,358,42.687363,23.311102
НАДЛЕЗ НАДЕЖДА,359,42.71417,23.307786
МЕТРОСТАНЦИЯ МИЗИЯ,361,42.683087,23.256093
БУЛ. ПРАГА,362,42.689935,23.3135
БУЛ. ПРАГА,363,42.688799,23.314795
БУЛ. ПРАГА,364,42.688921,23.314529
БУЛ. ПРАГА,365,42.689255,23.314167
БУЛ. ПРАГА,366,42.689101,23.313302
БУЛ. ПРОФ. ЦВ. ЛАЗАРОВ,367,42.673523,23.382842
БУЛ. ПРОФ. ЦВ. ЛАЗАРОВ,368,42.673657,23.382454
БУЛ. ПРОФ. ЦВ. ЛАЗАРОВ,369,42.673441,23.381207
БУЛ. ПРОФ. ЦВ. ЛАЗАРОВ,370,42.673745,23.382575
БУЛ. ПРОФ. ЦВ. ЛАЗАРОВ,371,42.674342,23.380557
БУЛ. ХРИСТОФОР КОЛУМБ,372,42.660552,23.392004
БУЛ. ХРИСТОФОР КОЛУМБ,373,42.660886,23.39144
БУЛ. СЛИВНИЦА,376,42.704969,23.317552
БУЛ. СЛИВНИЦА,377,42.706169,23.317742
ЖЕНСКИ ПАЗАР,378,42.700716,23.318262
ЖЕНСКИ ПАЗАР,379,42.700383,23.31779
БУЛ. ХРИСТО БОТЕВ,382,42.705761,23.31688
БУЛ. ХРИСТО БОТЕВ,383,42.700161,23.316413
БУЛ. ХРИСТО БОТЕВ,384,42.700266,23.315673
БУЛ. ХРИСТО БОТЕВ,385,42.705022,23.318649
УАСГ,386,42.685683,23.330679
УАСГ,387,42.685768,23.331029
БУЛ. ЦАР БОРИС ІІІ,388,42.665826,23.259139
БУЛ. ЦАР БОРИС ІІІ,389,42.687415,23.299717
БУЛ. ЦАР БОРИС ІІІ,390,42.665623,23.259097
БУЛ. ЦАР БОРИС ІІІ,391,42.665434,23.260816
БУЛ. ЦАР БОРИС ІІІ,392,42.687419,23.301168
БУЛ. ЦАР БОРИС ІІІ,393,42.686165,23.300154
БУЛ. ЦАР БОРИС ІІІ,394,42.687068,23.300822
БУЛ. ЧЕРНИ ВРЪХ,395,42.683127,23.319858
ХОТЕЛ ХИЛТЪН,396,42.685203,23.321214
ХОТЕЛ ХИЛТЪН,397,42.682027,23.320754
БУЛ. ЧЕРНИ ВРЪХ,398,42.683069,23.322147
ХОТЕЛ ХИЛТЪН,399,42.682005,23.320947
ХОТЕЛ ХИЛТЪН,400,42.682382,23.320893
БУЛ. ЧЕРНИ ВРЪХ,401,42.683811,23.322047
БУЛ. ШИПЧЕНСКИ ПРОХОД,402,42.679831,23.361442
БУЛ. ШИПЧЕНСКИ ПРОХОД,403,42.678715,23.360777
БУЛАВТО,404,42.745537,23.330241
БУЛАВТО,405,42.745418,23.330121
БУЛ. ПАНЧО ВЛАДИГЕРОВ,406,42.723129,23.259216
МАНАСТИР СВ. ЙОАКИМ И АНА - ПО ЖЕЛАНИЕ,407,42.566519,23.363409
В.З. БУНКЕРА - ПО ЖЕЛАНИЕ,408,42.610355,23.363787
В.З. БУНКЕРА - ПО ЖЕЛАНИЕ,409,42.610226,23.363873
БЛ. 4 Ж.К. СУХАТА РЕКА,410,42.699585,23.367334
БЛ. 4 Ж.К. СУХАТА РЕКА,411,42.699349,23.365771
В.З. КИНОЦЕНТЪР,412,42.637816,23.297362
В.З. КИНОЦЕНТЪР,413,42.636969,23.297831
ОКОЛОВРЪСТЕН ПЪТ - ПО ЖЕЛАНИЕ,414,42.624277,23.358203
ОКОЛОВРЪСТЕН ПЪТ - ПО ЖЕЛАНИЕ,415,42.624259,23.35761
ВСУ Л.КАРАВЕЛОВ,416,42.695058,23.248691
ВСУ Л.КАРАВЕЛОВ,417,42.695186,23.248273
ВМА,418,42.684732,23.302062
ВМА,419,42.684831,23.302948
ВЕЦ ПАСАРЕЛ - ПО ЖЕЛАНИЕ,420,42.542938,23.488676
ВЕЦ ПАСАРЕЛ - ПО ЖЕЛАНИЕ,421,42.543124,23.488486
УЛ. ЗЛАТЕН ВЕК,422,42.622701,23.33277
КВ. МАЛИНОВА ДОЛИНА - ПО ЖЕЛАНИЕ,423,42.637952,23.353325
УЛ. ГЕРЕНА,424,42.625698,23.318344
В.З. ГЕРМАН,425,42.625657,23.422653
КВ. МАЛИНОВА ДОЛИНА - ПО ЖЕЛАНИЕ,426,42.637876,23.35326
УЛ. ЗЛАТЕН ВЕК,427,42.62257,23.332807
УЛ. ГЕРЕНА,428,42.626324,23.317932
В.З. КВ. БОЯНА,429,42.644866,23.278341
В.З. ГЕРМАН,430,42.624925,23.422325
В.З. БАНКЯ,431,42.696467,23.149421
В.З. БАНКЯ,432,42.696209,23.149324
В.З. СУХОДОЛ,433,42.700938,23.200415
В.З. СУХОДОЛ,434,42.701018,23.20076
В.З. КВ. БОЯНА,435,42.644907,23.278017
УЛ. 12 - ПО ЖЕЛАНИЕ,436,42.605418,23.366556
УЛ. 12 - ПО ЖЕЛАНИЕ,437,42.605676,23.366432
КРАЯ С. МРАМОР,438,42.78876,23.27248
КРАЯ С. МРАМОР,439,42.788525,23.272735
ВОЕННА АКАДЕМИЯ,440,42.692156,23.344344
ВОЕННА АКАДЕМИЯ,441,42.69264,23.34365
ВОЕННА АКАДЕМИЯ,442,42.692431,23.343854
УМБАЛ СВ. ЕКАТЕРИНА,443,42.686045,23.311749
УМБАЛ СВ. ЕКАТЕРИНА,444,42.685577,23.312036
УЛ. А. КОНСТАНТИНОВ - ПО ЖЕЛАНИЕ,445,42.697543,23.122193
УЛ. А. КОНСТАНТИНОВ - ПО ЖЕЛАНИЕ,446,42.69747,23.122078
УЛ. ЙЕРУСАЛИМ,447,42.654418,23.372776
ГАРА ВЛАДАЯ,448,42.622796,23.185916
ГАРА ВОЛУЯК,449,42.757118,23.244468
ГАРА ВОЛУЯК,450,42.756895,23.244404
ГАРА ЗАХАРНА ФАБРИКА,451,42.712733,23.292823
ГАРА ЗАХАРНА ФАБРИКА,452,42.712461,23.291343
ГАРА ИВАНЯНЕ,453,42.717048,23.170085
ГАРА ИВАНЯНЕ,454,42.717024,23.170391
ГАРА КАЗИЧЕНЕ,455,42.654882,23.45951
ГАРА КАЗИЧЕНЕ,456,42.65475,23.459763
ГАРА КУРИЛО - ПО ЖЕЛАНИЕ,457,42.818067,23.355931
ГАРА КУРИЛО - ПО ЖЕЛАНИЕ,459,42.818298,23.355975
ГАРА ОБЕЛЯ,460,42.739049,23.264547
ГАРА ОБЕЛЯ,461,42.738871,23.2644
ГАРА ПИОНЕР,462,42.666594,23.338594
ГАРА ПИОНЕР,465,42.666709,23.33813
ГАРА ПОДУЯНЕ,466,42.696651,23.355951
ГАРА ПОДУЯНЕ,467,42.697548,23.354449
ГАРА ПОДУЯНЕ,468,42.69606,23.354768
ГАРА ПОДУЯНЕ,469,42.696965,23.35367
ГАРА ПОДУЯНЕ,470,42.696908,23.354002
ГАРА ПОДУЯНЕ,471,42.69709,23.353572
ГАРА ПОДУЯНЕ,472,42.696812,23.355828
ГАРА ПОДУЯНЕ,473,42.696861,23.355617
ГАРА РУДНИЧНА - ПО ЖЕЛАНИЕ,474,42.767295,23.49259
ГАРА РУДНИЧНА - ПО ЖЕЛАНИЕ,475,42.767863,23.493074
ГАРА ЯНА,478,42.727218,23.555166
ГАРА ЯНА,479,42.72689,23.555256
ГАРА ГОРНА БАНЯ,480,42.673602,23.24034
УЛ. СИНЧЕЦ,481,42.781787,23.3837
УЛ. СИНЧЕЦ,482,42.781943,23.38416
ГАРА ГОРНА БАНЯ,483,42.674312,23.2402
УЛ. Т. КАБЛЕШКОВ,484,42.662106,23.295575
СТОКОВ БАЗАР ИЛИЯНЦИ,485,42.739798,23.309271
86-ТИ ПОЩЕНСКИ КЛОН,486,42.614802,23.415591
86-ТИ ПОЩЕНСКИ КЛОН,487,42.614762,23.415471
ПРОМИШЛЕНА ЗОНА,488,42.657737,23.425901
ПРОМИШЛЕНА ЗОНА,489,42.657907,23.425736
УЛ. Т. КАБЛЕШКОВ,490,42.66219,23.295813
СТОКОВ БАЗАР ИЛИЯНЦИ,491,42.738897,23.309632
РЕПУБЛИКАНСКИ НЕВРОДИСПАНСЕР,492,42.666972,23.3652
ИНСТИТУТ ПО ОРТОПЕДИЯ,493,42.671859,23.243049
РЕПУБЛИКАНСКИ НЕВРОДИСПАНСЕР,494,42.666608,23.36429
ГОРСКО СТОПАНСТВО,495,42.770978,23.439331
ГОРСКО СТОПАНСТВО,496,42.770935,23.439202
ГОРУБЛЯНСКО ХАНЧЕ,497,42.638109,23.411517
ГОРУБЛЯНСКО ХАНЧЕ,498,42.637701,23.41123
ГОРУБЛЯНСКО ХАНЧЕ,499,42.638774,23.412193
ГОРУБЛЯНСКО ХАНЧЕ,500,42.638284,23.412452
ЦЕНТЪРА БАНКЯ,502,42.707171,23.14825
ЦЕНТЪРА БАНКЯ,503,42.707192,23.147728
ГРАД БУХОВО,504,42.764526,23.568937
ГРЕБНА БАЗА,505,42.597969,23.406252
ГРЕБНА БАЗА,506,42.597586,23.406644
ГРОБИЩЕН ПАРК НЕГОВАН,507,42.766824,23.408806
ГРОБИЩЕН ПАРК НЕГОВАН,508,42.766904,23.408747
ЧИТАЛИЩЕ СВ.СВ. КИРИЛ И МЕТОДИЙ,511,42.722211,23.27049
ЧИТАЛИЩЕ СВ.СВ. КИРИЛ И МЕТОДИЙ,512,42.722449,23.26972
АВТОСЕРВИЗ,513,42.713907,23.357435
АВТОСЕРВИЗ,514,42.714128,23.358221
ДЕПО ИСКЪР,515,42.655052,23.414515
ДЕПО ИСКЪР,516,42.654409,23.411031
ДЕПО ИСКЪР,517,42.654488,23.411134
ДЕПО ИСКЪР,518,42.656353,23.41451
ДЕПО ИСКЪР,519,42.65608,23.414402
ДЕПО ИСКЪР,520,42.656056,23.414538
УЛ. 10-ТИ КИЛОМЕТЪР - ПО ЖЕЛАНИЕ,521,42.652312,23.223388
УЛ. 10-ТИ КИЛОМЕТЪР - ПО ЖЕЛАНИЕ,522,42.652083,23.222211
ДЕТСКИ ДОМ,524,42.65369,23.346731
ДЕТСКИ ДОМ,525,42.673691,23.430303
ДЕТСКИ ДОМ,527,42.674007,23.430873
ДЕТСКИ ДОМ - ПО ЖЕЛАНИЕ,528,42.796204,23.339533
ДЕТСКИ ДОМ - ПО ЖЕЛАНИЕ,529,42.796416,23.339723
ДЕТСКИ ДОМ,530,42.653673,23.3444
ДЕТСКИ ДОМ КИНОЦЕНТЪР,531,42.642417,23.289428
ДЕТСКИ ДОМ КИНОЦЕНТЪР,532,42.642542,23.289164
ДЕТСКИ ЯСЛИ,533,42.647935,23.34155
ДЕТСКИ ЯСЛИ,534,42.648706,23.341685
ДЕТСКО ГРАДЧЕ - ПО ЖЕЛАНИЕ,535,42.615147,23.400981
ДЕТСКО ГРАДЧЕ - ПО ЖЕЛАНИЕ,536,42.615369,23.400983
ПРОИЗВОДСТВЕН К-С МОСКВА,537,42.729175,23.324616
ПРОИЗВОДСТВЕН К-С МОСКВА,538,42.728949,23.324333
МОДНА КЪЩА АГРЕСИЯ,539,42.727704,23.312597
МОДНА КЪЩА АГРЕСИЯ,540,42.727243,23.312536
МОДНА КЪЩА АГРЕСИЯ,541,42.726967,23.31251
МОДНА КЪЩА АГРЕСИЯ,542,42.726623,23.312105
РИТЕКС АД,543,42.665316,23.462112
РИТЕКС АД,544,42.66495,23.461883
ПРОМИШЛЕНА ЗОНА КРИВИНА,545,42.669752,23.464235
БУЛ. РОЖЕН,546,42.731135,23.314032
БУЛ. РОЖЕН,547,42.730875,23.313386
ПРОМИШЛЕНА ЗОНА КРИВИНА,548,42.669812,23.464371
СТИНД,549,42.731342,23.32611
СТИНД,550,42.731273,23.325944
СТИНД,551,42.734028,23.328391
ДЪРЖАВНА ПЕЧАТНИЦА,554,42.656651,23.384868
ДЪРЖАВНА ПЕЧАТНИЦА,555,42.656867,23.385199
ДЯВОЛСКИ МОСТ - ПО ЖЕЛАНИЕ,556,42.560797,23.422699
ДЯВОЛСКИ МОСТ - ПО ЖЕЛАНИЕ,557,42.561041,23.422706
ЕЗЕРОТО,558,42.661865,23.396775
ЕЗЕРОТО,559,42.661738,23.396831
ЕЛ. КАНТОН,560,42.762556,23.399502
ЕЛ. КАНТОН,561,42.762381,23.399569
МАХАЛА ЕЛАТА,562,42.501235,23.37219
МАХАЛА ЕЛАТА,563,42.501022,23.372254
БАЛКАНКАР АД,564,42.68508,23.275025
БАЛКАНКАР АД,565,42.686649,23.274981
БАЛКАНКАР АД,566,42.686144,23.274811
БАЛКАНКАР АД,567,42.685533,23.274375
БАЛКАНКАР АД,568,42.68579,23.274666
БАЛКАНКАР АД,569,42.684748,23.275306
ЕЛЕКТРОТЕРМИЯ - ПО ЖЕЛАНИЕ,570,42.751131,23.505521
ЕЛЕКТРОТЕРМИЯ - ПО ЖЕЛАНИЕ,571,42.751369,23.505333
МЕСТНОСТ ЕЛИТЕ,572,42.607377,23.176989
МЕСТНОСТ ЕЛИТЕ,573,42.60688,23.176373
ЕНЕРГОПРОЕКТ,574,42.673159,23.324051
ЕНЕРГОПРОЕКТ,575,42.672995,23.323592
СОФИЯ ТЕХ ПАРК,576,42.665923,23.371635
БУЛ. ХРИСТОФОР КОЛУМБ,577,42.664628,23.389889
БУЛ. ХРИСТОФОР КОЛУМБ,578,42.662906,23.391532
СОФИЯ ТЕХ ПАРК,579,42.665545,23.371842
Ж.К. БОРОВО,580,42.669041,23.279766
КВ. МАНАСТИРСКИ ЛИВАДИ-ЗАПАД,581,42.661996,23.284041
КВ. МАНАСТИРСКИ ЛИВАДИ - ЗАПАД,582,42.661509,23.284276
Ж.К. БОТУНЕЦ-2 - ПО ЖЕЛАНИЕ,584,42.739169,23.504541
Ж.К. БОТУНЕЦ-2 - ПО ЖЕЛАНИЕ,585,42.738835,23.503964
Ж.К. БЪКСТОН,586,42.658671,23.272482
Ж.К. БЪКСТОН,587,42.65928,23.272825
Ж.К. БЪКСТОН,588,42.658459,23.272811
Ж.К. БЪКСТОН,589,42.675178,23.278741
Ж.К. БЪКСТОН,590,42.675313,23.27905
Ж.К. БЪКСТОН,591,42.659129,23.272698
Ж.К. ВРЪБНИЦА-1,592,42.734925,23.285976
Ж.К. ВРЪБНИЦА-1,593,42.734704,23.286259
Ж.К. ВРЪБНИЦА-2,594,42.739392,23.290697
Ж.К. ГЕО МИЛЕВ,595,42.676582,23.369863
Ж.К. ГЕО МИЛЕВ,596,42.677144,23.369769
Ж.К. ГЕО МИЛЕВ,597,42.676716,23.369683
УЛ. ТОДОР КАБЛЕШКОВ,598,42.659665,23.298857
Ж.К. ГОЦЕ ДЕЛЧЕВ,599,42.659939,23.29723
Ж.К. ГОЦЕ ДЕЛЧЕВ,600,42.66004,23.297862
УЛ. ТОДОР КАБЛЕШКОВ,601,42.659609,23.299335
Ж.К. ДИАНАБАД,602,42.657071,23.336285
Ж.К. ДИАНАБАД,603,42.657372,23.337713
Ж.К. ДРУЖБА-1,604,42.670066,23.398217
Ж.К. ДРУЖБА-1,605,42.653794,23.413581
Ж.К. ДРУЖБА-1,606,42.670233,23.397538
Ж.К. ДРУЖБА-1,607,42.670475,23.397155
Ж.К. ДРУЖБА-1,608,42.670721,23.397204
Ж.К. ЛЮЛИН-3 - УХО,610,42.721726,23.24051
Ж.К. ДРУЖБА-2,611,42.640094,23.41624
Ж.К. ДРУЖБА-2,612,42.639759,23.416288
ЛТУ,614,42.653841,23.359764
ЛТУ,617,42.65313,23.359684
Ж.К. ЗАПАДЕН ПАРК,618,42.701697,23.277758
Ж.К. ЗАПАДЕН ПАРК,619,42.70143,23.27818
Ж.К. ЗАПАДЕН ПАРК,620,42.701595,23.276545
ГАРА ЗАХАРНА ФАБРИКА,621,42.711254,23.289106
ГАРА ЗАХАРНА ФАБРИКА,622,42.711742,23.289011
Ж.К. ИВАН ВАЗОВ,623,42.677008,23.303318
Ж.К. ИВАН ВАЗОВ,625,42.676736,23.304784
Ж.К. ИВАН ВАЗОВ,626,42.675247,23.303541
Ж.К. ДИАНАБАД,627,42.665259,23.35542
Ж.К. ДИАНАБАД,630,42.665046,23.355408
Ж.К. КРАСНА ПОЛЯНА,631,42.691141,23.278859
Ж.К. КРАСНА ПОЛЯНА,632,42.691049,23.278802
Ж.К. КРАСНА ПОЛЯНА,633,42.69112,23.279178
Ж.К. КРАСНА ПОЛЯНА,634,42.690687,23.278396
Ж.К. КРАСНА ПОЛЯНА,635,42.690734,23.27806
Ж.К. КРАСНО СЕЛО,636,42.679101,23.285613
Ж.К. КРАСНО СЕЛО,637,42.678186,23.285441
Ж.К. КРАСНО СЕЛО,638,42.678443,23.28414
Ж.К. КРАСНО СЕЛО,639,42.678788,23.285136
Ж.К. КРАСНО СЕЛО,640,42.678566,23.284817
Ж.К. КРАСНО СЕЛО,641,42.679431,23.283889
Ж.К. ЛАГЕРА,644,42.685129,23.296902
Ж.К. ЛАГЕРА,645,42.684925,23.296434
Ж.К. ЛЕВСКИ-Г,646,42.712111,23.38806
ПК СПАРТАК,647,42.675546,23.31501
Ж.К. ЛОЗЕНЕЦ,648,42.675808,23.314697
Ж.К. ЛЮЛИН-1,2,649,42.729928,23.24715
Ж.К. ЛЮЛИН-1,2,650,42.729587,23.247039
Ж.К. ЛЮЛИН-3,651,42.72178,23.24138
Ж.К. ЛЮЛИН-3,652,42.720523,23.242569
Ж.К. ЛЮЛИН-3,653,42.720949,23.242079
Ж.К. ЛЮЛИН-3,654,42.720849,23.240424
Ж.К. ЛЮЛИН-5,655,42.712985,23.238701
Ж.К. ЛЮЛИН-5,656,42.71337,23.237962
Ж.К. ЛЮЛИН-5,657,42.716476,23.237666
ХОТЕЛ АМБАСАДОР,658,42.638774,23.334254
ХОТЕЛ АМБАСАДОР,659,42.63849,23.334411
Ж.К. ЛЕВСКИ-Г,660,42.711875,23.379968
Ж.К. МЛАДОСТ-1,661,42.65119,23.36791
Ж.К. МЛАДОСТ-1,662,42.651108,23.367487
Ж.К. МЛАДОСТ-2,663,42.644998,23.367423
Ж.К. МЛАДОСТ-2,664,42.645592,23.367433
Ж.К. МЛАДОСТ-3,665,42.638909,23.386306
Ж.К. МЛАДОСТ-3,666,42.638831,23.38614
Ж.К. МЛАДОСТ-3,667,42.640339,23.386742
Ж.К. МЛАДОСТ-3,668,42.640703,23.386809
Ж.К. МЛАДОСТ-4,669,42.625767,23.384366
Ж.К. МЛАДОСТ-4,670,42.625519,23.384412
Ж.К. МОТОПИСТА,671,42.669414,23.291913
Ж.К. МОТОПИСТА,672,42.669256,23.291698
ОБЩИНА ВРЪБНИЦА,675,42.731928,23.285468
ОБЩИНА ВРЪБНИЦА,676,42.73022,23.286907
Ж.К. ОБЕЛЯ-1,677,42.737161,23.268239
Ж.К. ОБЕЛЯ-2,678,42.746029,23.281215
Ж.К. ОБЕЛЯ-2,679,42.748434,23.276554
Ж.К. ОБЕЛЯ-2,680,42.748337,23.277127
Ж.К. ОБЕЛЯ-2,681,42.74633,23.280775
Ж.К. ОВЧА КУПЕЛ-2,682,42.682662,23.243604
МЕТРОСТАНЦИЯ ГОРНА БАНЯ,683,42.6823,23.242123
Ж.К. ОВЧА КУПЕЛ-2,684,42.683021,23.243671
МЕТРОСТАНЦИЯ ГОРНА БАНЯ,685,42.682552,23.241854
Ж.К. СВОБОДА,686,42.738807,23.303221
Ж.К. СЛАТИНА,687,42.679894,23.371441
Ж.К. СЛАТИНА,688,42.681335,23.372365
Ж.К. СЛАТИНА,690,42.680314,23.372984
Ж.К. ХАДЖИ ДИМИТЪР,691,42.710799,23.361519
Ж.К. ХАДЖИ ДИМИТЪР,692,42.710161,23.349131
Ж.К. ХИПОДРУМА,693,42.682902,23.292686
Ж.К. ХИПОДРУМА,694,42.68301,23.292816
ГАРА ЧЕПИНЦИ,695,42.765597,23.434524
ГАРА ЧЕПИНЦИ,696,42.765501,23.434348
Ж.П. ПРЕЛЕЗ,697,42.734032,23.343425
СОФИЯ МЕЛ АД,698,42.706975,23.338759
Ж.П. ПРЕЛЕЗ,699,42.733979,23.323125
Ж.П. ПРЕЛЕЗ,700,42.734104,23.323015
СОФИЯ МЕЛ АД,701,42.706938,23.339552
Ж.П. ПРЕЛЕЗ - ПО ЖЕЛАНИЕ,702,42.752517,23.501192
Ж.П. ПРЕЛЕЗ - ПО ЖЕЛАНИЕ,703,42.752529,23.501329
Ж.П. ПРЕЛЕЗ,704,42.75475,23.212307
Ж.П. ПРЕЛЕЗ,705,42.754155,23.213031
БУЛ. ВАРДАР,706,42.702223,23.286005
БУЛ. ВАРДАР,707,42.702121,23.286446
Ж.П. ПРЕЛЕЗ,710,42.732879,23.343537
УЛ. КНЯГИНЯ КОСАРА,711,42.697401,23.375219
УЛ. КНЯГИНЯ КОСАРА,712,42.696728,23.37516
ПАРК С.КРИВИНА,713,42.674331,23.465463
ПАРКА С.КРИВИНА,714,42.67487,23.465083
СПИИДО ЕООД,715,42.721208,23.284735
СПИИДО ЕООД,716,42.720529,23.285278
КОТЛОСТРОЕНЕ АД,717,42.718578,23.315714
КОТЛОСТРОЕНЕ АД,718,42.718599,23.316409
НУ ЗА ТАНЦОВО ИЗКУСТВО,719,42.67836,23.365828
НУ ЗА ТАНЦОВО ИЗКУСТВО,720,42.678525,23.365326
УЛ. 5007,721,42.671021,23.408908
УЛ. 5007,722,42.670772,23.409105
УЛ. ПОРУЧИК ХР. ТОПРАКЧИЕВ,723,42.668628,23.412471
УЛ. ПОРУЧИК ХР. ТОПРАКЧИЕВ,724,42.668092,23.413056
ЗАГ ДИНАМИК АД,727,42.732082,23.31722
ЗАГ ДИНАМИК АД,728,42.73165,23.317134
ЗАЛА ФЕСТИВАЛНА,729,42.684918,23.365095
ЗАЛА ФЕСТИВАЛНА,730,42.684581,23.364457
ЗАСЛОН СИНАНИЦА,731,42.558225,23.450203
ЗАСЛОН СИНАНИЦА,732,42.558369,23.449996
УЛ. 44 - ПО ЖЕЛАНИЕ,733,42.607201,23.367685
УЛ. 44 - ПО ЖЕЛАНИЕ,734,42.607652,23.367487
ЗЕЛЕНЧУКОВА ГРАДИНА,736,42.750634,23.399147
ЗЕЛЕНЧУКОВА ГРАДИНА,737,42.750278,23.399214
ЗЕЛЕНЧУКОВА ГРАДИНА,738,42.744275,23.409128
ЗЕЛЕНЧУКОВА ГРАДИНА,739,42.743893,23.408707
ЗИМЕН ДВОРЕЦ НА СПОРТА,741,42.644576,23.341924
ЗИМЕН ДВОРЕЦ НА СПОРТА,742,42.644358,23.342023
СОФАРМА АД,744,42.735827,23.317485
СОФАРМА АД,745,42.735496,23.317513
ЗООПАРКА,749,42.658253,23.328492
ЗСК КРЕМИКОВЦИ АД,751,42.757805,23.487206
М-ТЕЛ,752,42.716508,23.296064
М-ТЕЛ,753,42.715835,23.29715
СТОКОВ БАЗАР ИЛИЯНЦИ,754,42.738863,23.31783
СТОКОВ БАЗАР ИЛИЯНЦИ,755,42.738119,23.317664
ИНЖСТРОЙ СОФИЯ АД,756,42.71788,23.291784
ИНЖСТРОЙ СОФИЯ АД,757,42.718225,23.291657
УМБАЛСМ ПИРОГОВ,758,42.690195,23.306626
УМБАЛСМ ПИРОГОВ,759,42.689907,23.306145
УМБАЛСМ ПИРОГОВ,760,42.689528,23.305636
НСБАЛ ПО ОНКОЛОГИЯ,761,42.662489,23.358626
НСБАЛ ПО ОНКОЛОГИЯ,764,42.662726,23.358038
ДИПЛОМАТИЧЕСКИ КЛУБ,765,42.672942,23.246553
ИНСТИТУТ ПО ОРТОПЕДИЯ,766,42.672716,23.244605
ИНСТИТУТ ПО ЧЕРНА МЕТАЛУРГИЯ - ПО ЖЕЛАНИЕ,767,42.747695,23.508687
ИНСТИТУТ ПО ЧЕРНА МЕТАЛУРГИЯ - ПО ЖЕЛАНИЕ,768,42.747263,23.509326
ИНСТИТУТ ПО ЧЕРНА МЕТАЛУРГИЯ - ПО ЖЕЛАНИЕ,769,42.747321,23.508876
ИНСТИТУТ ПО ЧЕРНА МЕТАЛУРГИЯ - ПО ЖЕЛАНИЕ,770,42.747656,23.508915
ИНСТИТУТ ПУШКАРОВ,771,42.734475,23.236821
ИНСТИТУТ ПУШКАРОВ,772,42.734295,23.236145
УЛ. КАЛОЯНОВО,773,42.670159,23.257141
УЛ. КАЛОЯНОВО,776,42.670351,23.257868
УЛ. ИНЖ. ГЕОРГИ БЕЛОВ,777,42.638983,23.405976
УЛ. ИНЖ. ГЕОРГИ БЕЛОВ,778,42.638064,23.406481
В.З. СИМЕОНОВО-ДРАГАЛЕВЦИ,779,42.622563,23.322288
КАВАЦИТЕ,780,42.720074,23.534705
КАВАЦИТЕ,781,42.719755,23.535447
В.З. СИМЕОНОВО-ДРАГАЛЕВЦИ,782,42.622944,23.321631
УЛ. АСЕН ЙОРДАНОВ,783,42.653475,23.316016
УЛ. ДРУЖБА,784,42.774111,23.246907
УЛ. ДРУЖБА,785,42.774039,23.246884
УЛ. АСЕН ЙОРДАНОВ,786,42.652468,23.315885
КАНТОНА,787,42.70879,23.435885
КАНТОНА,788,42.708491,23.435965
КАНТОНА,789,42.721778,23.190582
КАНТОНА,790,42.722128,23.192605
КАНТОНА,791,42.487422,23.383397
КАНТОНА,792,42.487186,23.38354
КАНТОНА,793,42.708319,23.432673
КАРИЕРАТА - ПО ЖЕЛАНИЕ,794,42.770512,23.53831
КАРИЕРАТА - ПО ЖЕЛАНИЕ,795,42.770342,23.538736
КАТОЛИЧЕСКИ ГРОБИЩЕН ПАРК,796,42.715905,23.339934
КАТОЛИЧЕСКИ ГРОБИЩЕН ПАРК,797,42.716113,23.340123
КАУЧУКОВ ЗАВОД ЗЕБРА - ПО ЖЕЛАНИЕ,798,42.820848,23.36544
КАУЧУКОВ ЗАВОД ЗЕБРА - ПО ЖЕЛАНИЕ,799,42.820793,23.365718
Ж.К. ДЪРВЕНИЦА,800,42.651383,23.357765
Ж.К. ДЪРВЕНИЦА,801,42.651345,23.356191
КВ. АБДОВИЦА,802,42.663661,23.428034
Ж.К. БАНИШОРА,803,42.706399,23.307339
Ж.К. БАНИШОРА,804,42.705833,23.307352
КВ. БЕНКОВСКИ,805,42.744928,23.347911
КВ. БЕНКОВСКИ,806,42.745259,23.348456
КВ. БОЯНА,807,42.649409,23.264486
КВ. БОЯНА,808,42.649494,23.263528
В.З. БЕЛОВОДСКИ ПЪТ - ПО ЖЕЛАНИЕ,810,42.649881,23.248216
В.З. БЕЛОВОДСКИ ПЪТ - ПО ЖЕЛАНИЕ,811,42.649991,23.24839
МЕТРОСТАНЦИЯ МИЗИЯ,812,42.682276,23.255342
МЕТРОСТАНЦИЯ МИЗИЯ,813,42.683084,23.255836
КВ. БУСМАНЦИ,814,42.675488,23.433503
КВ. БУСМАНЦИ,815,42.67595,23.43349
КВ. БУСМАНЦИ,816,42.675678,23.433481
КВ. ВЕРДИКАЛ,817,42.719638,23.130884
КВ. ВЕРДИКАЛ,818,42.719864,23.130936
КВ. ВИДНИТЕ,819,42.658729,23.458188
КВ. ВИДНИТЕ,820,42.658657,23.458118
КВ. ВИТОША,821,42.651506,23.335876
КВ. ВИТОША,822,42.650343,23.335575
КВ. ВРАЖДЕБНА,823,42.712458,23.412232
КВ. ВРАЖДЕБНА,824,42.71248,23.411955
ГАРА ИСКЪР,825,42.663117,23.415641
ГАРА ИСКЪР,826,42.663344,23.41585
КВ. ГНИЛЯНЕ,827,42.808963,23.376141
КВ. ГНИЛЯНЕ,828,42.809493,23.376114
КВ. ГОРНА БАНЯ,829,42.675716,23.228605
КВ. ГОРУБЛЯНЕ,830,42.628436,23.40792
КВ. ГОРУБЛЯНЕ,831,42.627978,23.407521
КВ. ГРАДОМАН,832,42.685626,23.138776
КВ. Д. МИЛЕНКОВ,833,42.656742,23.427904
КВ. ДРАГАЛЕВЦИ,834,42.628975,23.309413
КВ. ДРАГАЛЕВЦИ,835,42.62908,23.309544
КВ. ДРАГАЛЕВЦИ,836,42.629214,23.308992
КВ. ДРАГАЛЕВЦИ,837,42.628742,23.30947
КВ. ИВАНЯНЕ,840,42.706226,23.181315
КВ. ИЗГРЕВ - ПО ЖЕЛАНИЕ,841,42.819853,23.373017
КВ. ИЗГРЕВ - ПО ЖЕЛАНИЕ,842,42.714618,23.171706
КВ. ИЗГРЕВ - ПО ЖЕЛАНИЕ,843,42.714841,23.172564
КВ. ИЗГРЕВ,844,42.715387,23.172579
КВ. ИЗГРЕВ - ПО ЖЕЛАНИЕ,845,42.715623,23.172058
КВ. ИЗГРЕВ - ПО ЖЕЛАНИЕ,846,42.819962,23.372805
КВ. ИЛИЯНЦИ,847,42.754036,23.320869
КВ. ИЛИЯНЦИ,848,42.753851,23.320535
КВ. КАРПУЗИЦА,849,42.668167,23.240958
КВ. КЛИСУРА,850,42.719147,23.083476
КВ. КНЯЖЕВО,851,42.658588,23.241354
КВ. КНЯЖЕВО,852,42.658946,23.241922
АВТОСТАНЦИЯ КНЯЖЕВО,853,42.658623,23.240369
КВ. КРЕМИКОВЦИ,854,42.779204,23.49642
КВ. КРЕМИКОВЦИ,855,42.779169,23.496259
КВ. КУМАРИЦА - ПО ЖЕЛАНИЕ,856,42.800845,23.341389
КВ. КУМАРИЦА,857,42.801094,23.340253
КВ. КУМАРИЦА,858,42.800895,23.34038
КВ. КУМАРИЦА - ПО ЖЕЛАНИЕ,859,42.79994,23.340988
ЮЖЕН ПАРК,860,42.660143,23.305557
ЮЖЕН ПАРК,861,42.658915,23.306297
КВ. МАЛАШЕВЦИ,862,42.71453,23.347667
КВ. МАЛАШЕВЦИ,863,42.714752,23.347558
УЛ. БИСТРИШКО ШОСЕ,864,42.624671,23.357048
УЛ. БИСТРИШКО ШОСЕ,865,42.624243,23.356492
КВ. МАНАСТИРСКИ ЛИВАДИ,866,42.656796,23.284433
КВ. МАНАСТИРСКИ ЛИВАДИ,867,42.653281,23.294392
КВ. МАНАСТИРСКИ ЛИВАДИ,868,42.65695,23.28493
УЛ. ТОПЛИКА - ПО ЖЕЛАНИЕ,869,42.690315,23.119243
УЛ. ТОПЛИКА - ПО ЖЕЛАНИЕ,870,42.690154,23.119119
КВ. ОБЕЛЯ,871,42.742703,23.265679
КВ. ОБЕЛЯ,872,42.743146,23.274839
КВ. ОБЕЛЯ,873,42.74335,23.274884
КВ. ОБЕЛЯ,874,42.742465,23.266069
КВ. ОВЧА КУПЕЛ,875,42.671577,23.272047
КВ. ОВЧА КУПЕЛ,876,42.672087,23.273224
КВ. ОВЧА КУПЕЛ,879,42.671602,23.27253
КВ. ОВЧА КУПЕЛ,880,42.671447,23.272186
КВ. ОВЧА КУПЕЛ,881,42.673126,23.270532
КВ. ОВЧА КУПЕЛ,882,42.67224,23.27206
КВ. ОРЛАНДОВЦИ,883,42.7185,23.337266
КВ. ОРЛАНДОВЦИ,884,42.717903,23.338938
КВ. ОРЛАНДОВЦИ,885,42.718007,23.338175
КВ. ОРЛАНДОВЦИ,886,42.717631,23.338805
КВ. ОРЛАНДОВЦИ,887,42.717425,23.339285
КВ. ПАВЛОВО,888,42.66783,23.265425
КВ. ПАВЛОВО,889,42.667774,23.265639
КВ. ПАВЛОВО,890,42.667115,23.266253
КВ. ПАВЛОВО,891,42.667793,23.265747
КВ. ПАВЛОВО,892,42.667897,23.266004
КВ. ПАВЛОВО,893,42.667555,23.266122
КВ. РЕПУБЛИКА,894,42.737564,23.242964
КВ. РЕПУБЛИКА,895,42.736828,23.242937
КВ. РЕПУБЛИКА,896,42.73685,23.242807
КВ. СЕСЛАВЦИ,897,42.783024,23.517563
КВ. СЕСЛАВЦИ,898,42.783301,23.517659
КВ. СИМЕОНОВО,899,42.612315,23.338929
УЛ. ЛЮБЛЯНА,900,42.674801,23.264266
КВ. СИМЕОНОВО,901,42.61179,23.339322
КВ. СЛАВОВЦИ - ПО ЖЕЛАНИЕ,903,42.792039,23.335049
КВ. СЛАВОВЦИ - ПО ЖЕЛАНИЕ,904,42.791766,23.334534
КВ. ТРЕБИЧ - ПО ЖЕЛАНИЕ,905,42.775192,23.315385
КВ. ТРЕБИЧ - ПО ЖЕЛАНИЕ,906,42.775365,23.315529
ПЪТЕН ВЪЗЕЛ ФИЛИПОВЦИ,907,42.717925,23.234052
ПЪТЕН ВЪЗЕЛ ФИЛИПОВЦИ,908,42.718382,23.23602
МЕТРОСТАНЦИЯ ВИТОША,909,42.660196,23.318027
МЕТРОСТАНЦИЯ ВИТОША,910,42.660599,23.317084
МЕТРОСТАНЦИЯ ВИТОША,911,42.660095,23.317087
МЕТРОСТАНЦИЯ ВИТОША,912,42.659808,23.317681
КВ. ХРИСТО БОТЕВ,913,42.689382,23.382739
КВ. КРЪСТОВА ВАДА,914,42.64943,23.315482
ВОЕННОРЕМОНТЕН ЗАВОД,915,42.756412,23.209517
ВОЕННОРЕМОНТЕН ЗАВОД,916,42.756923,23.208461
МЕСТНОСТ МАНИЛОВ ДОЛ,917,42.69895,23.195826
МЕСТНОСТ МАНИЛОВ ДОЛ,918,42.69885,23.195428
КВ. КРЪСТОВА ВАДА,919,42.647865,23.314863
УЛ. ЧЕПИНСКО ШОСЕ,920,42.723541,23.36971
УЛ. ЧЕПИНСКО ШОСЕ,921,42.723341,23.369133
ЧИТАЛИЩЕ ПЕНЧО П. СЛАВЕЙКОВ 1921,922,42.670422,23.320301
ЧИТАЛИЩЕ ПЕНЧО П.СЛАВЕЙКОВ 1921,923,42.670658,23.320494
БАЛКАНКЕРАМИК АД - ПО ЖЕЛАНИЕ,924,42.806904,23.348442
БАЛКАНКЕРАМИК АД - ПО ЖЕЛАНИЕ,925,42.806574,23.347958
КИНО ОДЕОН,926,42.688307,23.327296
КИНО ОДЕОН,927,42.688595,23.329631
ЧИТАЛИЩЕ Д-Р П. БЕРОН,928,42.676157,23.309031
ЧИТАЛИЩЕ Д-Р П. БЕРОН,929,42.676246,23.308764
КИНОЦЕНТЪР БОЯНА,930,42.641694,23.293047
КИНОЦЕНТЪР БОЯНА,931,42.641678,23.292841
КМЕТСТВО БАЛША,932,42.848574,23.269522
КМЕТСТВО БАЛША,933,42.848616,23.269333
КМЕТСТВО БОЖУРИЩЕ,934,42.763258,23.198169
КМЕТСТВО ЖЕЛЕЗНИЦА,936,42.53385,23.36636
КМЕТСТВО ЖЕЛЕЗНИЦА,937,42.533716,23.366098
ЦЕНТЪРА КВ. ИЛИЯНЦИ - ПО ЖЕЛАНИЕ,938,42.751559,23.318659
ЦЕНТЪРА КВ. ИЛИЯНЦИ - ПО ЖЕЛАНИЕ,939,42.750557,23.318456
КМЕТСТВО КАЗИЧЕНЕ,940,42.659735,23.464802
КМЕТСТВО КАЗИЧЕНЕ,941,42.65984,23.464901
ЧИТАЛИЩЕ ПРОСВЕТА,942,42.696271,23.226771
ЧИТАЛИЩЕ ПРОСВЕТА,943,42.695997,23.227616
ОБЩИНА  МЛАДОСТ,944,42.641513,23.381339
ОБЩИНА  МЛАДОСТ,945,42.641067,23.383728
ОБЩИНА  МЛАДОСТ,946,42.640843,23.380604
ОБЩИНА  МЛАДОСТ,947,42.640215,23.381531
КМЕТСТВО СВЕТОВРАЧАНЕ,948,42.782445,23.387717
КМЕТСТВО СВЕТОВРАЧАНЕ,949,42.782331,23.387653
КМЕТСТВО СЕЛО ЯНА,950,42.731287,23.558011
КМЕТСТВО СЕЛО ЯНА,951,42.730895,23.55782
КМЕТСТВО ЛОЗЕН,952,42.601671,23.486862
КМЕТСТВО ДОЛНИ БОГРОВ,953,42.69963,23.492041
КМЕТСТВО ДОЛНИ БОГРОВ,954,42.700061,23.492328
ОБЩИНА НОВИ ИСКЪР - ПО ЖЕЛАНИЕ,955,42.802807,23.343591
ОБЩИНА НОВИ ИСКЪР - ПО ЖЕЛАНИЕ,956,42.803114,23.34419
ОБЩИНА БАНКЯ,957,42.70604,23.14796
ОБЩИНА БАНКЯ,958,42.705852,23.147991
КМЕТСТВО ИВАНЯНЕ,959,42.707786,23.182782
КМЕТСТВО ИВАНЯНЕ,960,42.707821,23.182964
КМЕТСТВО ЛОЗЕН,961,42.601733,23.486951
КОКАЛЯНСКО ХАНЧЕ,962,42.582872,23.424051
КОКАЛЯНСКО ХАНЧЕ - ПО ЖЕЛАНИЕ,963,42.581815,23.424649
УЛ. СТРАНДЖА,964,42.709933,23.14048
УЛ. СТРАНДЖА,965,42.709959,23.139951
МАХАЛА КОНЬОВИЦА,966,42.695588,23.260104
МАХАЛА КОНЬОВИЦА,967,42.695447,23.259948
ПАЗАРА МЛАДОСТ 1,968,42.651961,23.374519
ПАЗАРА МЛАДОСТ 1,969,42.652798,23.373842
КОРАБЧЕТО,970,42.642455,23.403116
КОРАБЧЕТО,971,42.641923,23.405155
КОРИЯТА,972,42.632895,23.427648
КОРИЯТА,973,42.632689,23.427393
СОФИЯ МЕД АД,974,42.658258,23.415054
СОФИЯ МЕД АД,975,42.65963,23.4151
УЛ. СРЕБЪРНА,976,42.659124,23.326892
УЛ. СРЕБЪРНА,977,42.659443,23.324868
НАЧАЛО С. ЛОКОРСКО,978,42.788092,23.444711
НАЧАЛО С. ЛОКОРСКО,979,42.787985,23.444641
УЛ. МЕЧА ПОЛЯНА - ПО ЖЕЛАНИЕ,980,42.64958,23.246307
УЛ. МЕЧА ПОЛЯНА - ПО ЖЕЛАНИЕ,981,42.649526,23.24547
КРАЯ НА КВ. МИХАЙЛОВО,982,42.685169,23.11975
УЛ. ВРАЧАНСКА,983,42.771964,23.400804
УЛ. ВРАЧАНСКА,984,42.772279,23.400366
КРАЯ С. ЖИТЕН,985,42.821748,23.247783
КРАЯ С. ЖИТЕН,986,42.821542,23.247926
МК КРЕМИКОВЦИ,987,42.743334,23.518604
КУЛИНАРЕН К-Т ПЕЙФИЛ,988,42.638544,23.397191
КУЛИНАРЕН К-Т ПЕЙФИЛ,989,42.638653,23.396916
КУЛИНАРЕН К-Т ПЕЙФИЛ,990,42.638787,23.397438
КУЛИНАРЕН К-Т ПЕЙФИЛ,991,42.63913,23.397817
КУЛТУРЕН ДОМ,992,42.761019,23.562282
КУЛТУРЕН ДОМ,993,42.760978,23.562715
КЪМПИНГ ЧЕРНИЯ КОС - ПО ЖЕЛАНИЕ,994,42.649358,23.213832
КЪМПИНГ ЧЕРНИЯ КОС - ПО ЖЕЛАНИЕ,995,42.648908,23.21173
КЪМПИНГА,996,42.718958,23.176383
КЪМПИНГА,997,42.718793,23.17566
ЛАГЕРА,998,42.511828,23.365018
ЛАГЕРА,999,42.511734,23.364877
УЛ. ЛОКОМОТИВ,1000,42.728987,23.319232
УЛ. ЛОКОМОТИВ,1001,42.728426,23.318662
ЛЕТИЩЕ ДОБРОСЛАВЦИ,1002,42.81323,23.279314
ЛЕТИЩЕ ДОБРОСЛАВЦИ - ПО ЖЕЛАНИЕ,1003,42.818322,23.313708
ЛЕТИЩЕ ДОБРОСЛАВЦИ - ПО ЖЕЛАНИЕ,1004,42.81823,23.313974
ЛЕТИЩЕ ДОБРОСЛАВЦИ,1005,42.813362,23.279438
ЛЕТИЩЕ СОФИЯ ТЕРМИНАЛ 1,1006,42.688867,23.403029
ЛИФТА - ПО ЖЕЛАНИЕ,1007,42.548429,23.361989
ЛИФТА - ПО ЖЕЛАНИЕ,1008,42.547754,23.361049
МАНАСТИР СВ. ЙОАКИМ И АНА - ПО ЖЕЛАНИЕ,1009,42.566275,23.363514
ЛИФТА СИМЕОНОВО,1011,42.617026,23.348909
Ж.К. ДЪРВЕНИЦА,1012,42.650359,23.357877
Ж.К. ДЪРВЕНИЦА,1015,42.651042,23.35892
МЕТРОСТАНЦИЯ ЦАРИГРАДСКО ШОСЕ,1016,42.650296,23.393558
МЕТРОСТАНЦИЯ ЦАРИГРАДСКО ШОСЕ,1017,42.649173,23.393587
МАГАЗИН МЕТРО 2,1019,42.744872,23.229637
МАГАЗИН МЕТРО 2,1020,42.746054,23.228627
МАНАСТИР СВ. МИНА,1021,42.753431,23.361726
МАХАЛА ДЖЮЛНИЦИ,1022,42.767274,23.243745
МАХАЛА ДЖЮЛНИЦИ,1023,42.766465,23.243651
МАХАЛА ИВАНЯНЕ,1024,42.720105,23.182555
МАХАЛА ИВАНЯНЕ - ПО ЖЕЛАНИЕ,1025,42.716419,23.178448
МАХАЛА ИВАНЯНЕ - ПО ЖЕЛАНИЕ,1026,42.716428,23.178944
МАХАЛА ИВАНЯНЕ,1027,42.720145,23.182166
УЛ. ЛЕСКОВЕЦ,1028,42.623112,23.191436
УЛ. ЛЕСКОВЕЦ,1029,42.623032,23.191058
УЛ. МОНТЕВИДЕО,1030,42.695414,23.252062
УЛ. МОНТЕВИДЕО,1031,42.695413,23.252539
МГУ СВ.ИВ.РИЛСКИ,1032,42.661148,23.352007
МГУ СВ.ИВ.РИЛСКИ,1033,42.661126,23.351478
УМБАЛ АЛЕКСАНДРОВСКА,1034,42.686275,23.308272
УМБАЛ АЛЕКСАНДРОВСКА,1035,42.685864,23.306308
СТАДИОНА ГЕРМАН,1037,42.617864,23.417789
МЕЛНИЦАТА ЧЕПИНЦИ,1038,42.750625,23.434773
СТАДИОНА ГЕРМАН,1039,42.617509,23.417433
ПРОМИШЛЕНА ЗОНА - ПО ЖЕЛАНИЕ,1040,42.609382,23.342129
ПРОМИШЛЕНА ЗОНА - ПО ЖЕЛАНИЕ,1041,42.609187,23.342231
МЕТАЛСНАБ ХОЛДИНГ,1042,42.741095,23.32849
МЕТАЛСНАБ ХОЛДИНГ,1043,42.741077,23.328363
МЕТРОСТАНЦИЯ ВАРДАР,1044,42.706964,23.284725
МЕТРОСТАНЦИЯ ВАРДАР,1045,42.706011,23.283804
МЕТРОСТАНЦИЯ ВАРДАР,1046,42.705584,23.284053
МЕТРОСТАНЦИЯ ВАРДАР,1047,42.706737,23.284645
МЕТРОСТАНЦИЯ ЗАПАДЕН ПАРК,1048,42.711069,23.269483
МЕТРОСТАНЦИЯ ЗАПАДЕН ПАРК,1049,42.710938,23.269644
МЕТРОСТАНЦИЯ К. ВЕЛИЧКОВ,1050,42.701787,23.297719
МЕТРОСТАНЦИЯ К. ВЕЛИЧКОВ,1051,42.701443,23.297544
МЕТРОСТАНЦИЯ ЛЮЛИН,1054,42.718376,23.257074
МЕТРОСТАНЦИЯ ЛЮЛИН,1055,42.717964,23.256408
МЕТРОСТАНЦИЯ ЛЮЛИН,1056,42.71799,23.256268
МЕТРОСТАНЦИЯ ЛЮЛИН,1057,42.718507,23.257287
МЕТРОСТАНЦИЯ ОПЪЛЧЕНСКА,1058,42.699662,23.312612
МЕТРОСТАНЦИЯ СЛИВНИЦА,1059,42.72741,23.261056
МЕТРОСТАНЦИЯ СЛИВНИЦА,1060,42.726257,23.262791
МЕТРОСТАНЦИЯ СЛИВНИЦА,1061,42.726368,23.261304
МЕТРОСТАНЦИЯ СЛИВНИЦА,1062,42.727435,23.262737
МЕТРОСТАНЦИЯ СЛИВНИЦА,1063,42.725518,23.261041
УЛ. 503,1064,42.693092,23.380055
УЛ. 503,1065,42.693415,23.379356
МИНАТА,1066,42.832052,23.334123
МИНАТА - ПО ЖЕЛАНИЕ,1067,42.595485,23.364287
МИНАТА - ПО ЖЕЛАНИЕ,1068,42.594427,23.364544
МИНАТА,1069,42.832156,23.333908
МИТНИЦА СУХОДОЛ,1070,42.696858,23.21308
МИТНИЦА СУХОДОЛ,1071,42.697037,23.213222
МЛАДЕЖКИ ТЕАТЪР,1073,42.698077,23.32591
МЛАДЕЖКИ ТЕАТЪР,1074,42.698816,23.326784
ДАНОН СЕРДИКА АД,1075,42.693547,23.29941
МОСТА КВ. ВИТОША,1076,42.655453,23.336322
МОСТА НА ЛЕСНОВСКА РЕКА,1079,42.707263,23.498667
МОСТА НА ЛЕСНОВСКА РЕКА,1080,42.706916,23.500156
МОСТА НА СЕЛСКА РЕКА,1081,42.770003,23.241817
МОСТА НА СЕЛСКА РЕКА,1082,42.770745,23.241503
МОСТА,1083,42.719617,23.087932
МОСТА,1084,42.719511,23.088917
МОСТА НА Р. СТУБЕЛА,1085,42.695938,23.239485
МОСТА НА Р. СТУБЕЛА,1086,42.695835,23.24003
МОСТА КВ. ВИТОША,1087,42.654828,23.33608
МОСТА ДОЛНИ ПАСАРЕЛ,1088,42.538442,23.499842
МОСТА ДОЛНИ ПАСАРЕЛ,1089,42.538659,23.499888
МОСТА ЗА РЕЗИДЕНЦИЯ ВРАНА,1090,42.636486,23.421073
МОСТА ЗА РЕЗИДЕНЦИЯ ВРАНА,1091,42.636923,23.420093
МОСТА КВ.ВРАЖДЕБНА,1092,42.711821,23.408126
МОСТА КВ.ВРАЖДЕБНА,1093,42.711907,23.407905
МОСТА НА ВЛАДАЙСКА РЕКА,1094,42.716676,23.35193
МОСТА НА ВЛАДАЙСКА РЕКА,1095,42.716404,23.352347
МОСТА НА Р. ИСКЪР КВ. АБДОВИЦА,1096,42.665213,23.422038
МОСТА НА Р. ИСКЪР,1097,42.708782,23.41904
МОСТА НА Р. ИСКЪР,1098,42.7091,23.41836
МОСТА НА Р. ИСКЪР,1099,42.736744,23.395389
МОСТА НА Р. ИСКЪР,1100,42.736815,23.39572
МОСТА НА Р. ИСКЪР КВ. АБДОВИЦА,1101,42.665419,23.422115
МОСТА ЧАВДАР,1102,42.700468,23.346046
МОСТА ЧАВДАР,1103,42.70049,23.34548
МОТЕЛ БЕЛИ БРЕЗИ - ПО ЖЕЛАНИЕ,1104,42.524899,23.364921
МОТЕЛ БЕЛИ БРЕЗИ - ПО ЖЕЛАНИЕ,1105,42.52509,23.366118
МОТЕЛ БОЖУР,1106,42.746825,23.22587
БЛ. 703 Ж.К. ЛЮЛИН-7,1107,42.709981,23.265114
БЛ. 703 Ж.К. ЛЮЛИН-7,1108,42.710012,23.265953
СТЦ ИНТЕРПРЕД,1109,42.670775,23.351571
СТЦ ИНТЕРПРЕД,1112,42.669299,23.352538
НАДЛЕЗ НАДЕЖДА,1113,42.714657,23.310995
НАДЛЕЗ НАДЕЖДА,1114,42.714862,23.311862
НАЦИОНАЛНА ОПЕРА,1115,42.69829,23.330959
НАЦИОНАЛНА ОПЕРА,1116,42.698304,23.330627
НАЧАЛО С. БИСТРИЦА - ПО ЖЕЛАНИЕ,1117,42.590267,23.364594
НАЧАЛО С. БИСТРИЦА,1118,42.5904,23.364732
НАЧАЛО КВ. ГРАДОМАН,1119,42.689296,23.142593
НАЧАЛО КВ. ГРАДОМАН,1120,42.689388,23.142595
НАЧАЛО С.ДОЛНИ ЛОЗЕН,1121,42.607969,23.497517
УЛ. МИНЗУХАР,1122,42.815064,23.253161
УЛ. МИНЗУХАР,1123,42.815269,23.253102
НАЧАЛО КВ. ГНИЛЯНЕ,1124,42.805216,23.378422
НАЧАЛО КВ. ГНИЛЯНЕ,1125,42.805204,23.378321
НАЧАЛО КВ. КЛИСУРА,1126,42.72035,23.09669
НАЧАЛО КВ. КЛИСУРА,1127,42.720396,23.096633
НАЧАЛО С. КЪТИНА,1128,42.84086,23.323836
НАЧАЛО С. КЪТИНА,1129,42.841559,23.323404
НАЧАЛО С. МЪРЧАЕВО,1130,42.611367,23.179755
НАЧАЛО С. МЪРЧАЕВО,1131,42.611189,23.179595
НАЧАЛО С. ПЛАНА,1132,42.479733,23.398505
НАЧАЛО С. ПЛАНА,1133,42.479712,23.398626
НДК,1134,42.685596,23.317273
НДК,1135,42.685841,23.317723
НДК,1136,42.688995,23.319805
НАЦИОНАЛЕН ДВОРЕЦ НА КУЛТУРАТА,1139,42.685932,23.319372
НЕСТЛЕ-СОФИЯ,1140,42.72869,23.258327
НЕСТЛЕ-СОФИЯ,1141,42.729765,23.256824
УЛ. ЗАД СЕЛО,1142,42.683447,23.459044
УЛ. ЗАД СЕЛО,1143,42.683611,23.458679
НОВА ВРАЖДЕБНА,1144,42.691522,23.447745
НОВА ВРАЖДЕБНА,1145,42.691436,23.447752
ГРОБИЩЕН ПАРК МАЛАШЕВЦИ,1146,42.720306,23.362782
ГРОБИЩЕН ПАРК МАЛАШЕВЦИ,1147,42.720307,23.363028
СТРАННОПРИЕМНИЦАТА,1150,42.614366,23.501347
СК ЦСКА,1151,42.674422,23.37524
СК ЦСКА,1152,42.674783,23.376832
СК ЦСКА,1153,42.674968,23.376492
СК ЦСКА,1154,42.675052,23.375814
СК ЦСКА,1155,42.675243,23.375591
УЛ. ГЮЕШЕВО,1156,42.692527,23.295938
УЛ. ГЮЕШЕВО,1157,42.692793,23.295092
УЛ. ГЮЕШЕВО,1158,42.691175,23.295913
МЕТАЛИКА ООД,1159,42.738154,23.516576
МЕТАЛИКА ООД,1160,42.738453,23.516223
117-ТО СОУ,1161,42.757345,23.555667
117-ТО СОУ,1162,42.757576,23.555523
БЛ. 21 Ж.К. ЛЮЛИН-1,1163,42.728846,23.248928
БЛ. 21 Ж.К. ЛЮЛИН-1,1164,42.728371,23.249518
10-ТИ ДКЦ,1165,42.701265,23.292002
10-ТИ ДКЦ,1166,42.701221,23.292517
ОВЧАРСКИ КОШАРИ,1167,42.727814,23.105861
ОВЧАРСКИ КОШАРИ,1168,42.727783,23.10547
ОКОЛОВРЪСТЕН ПЪТ,1169,42.718121,23.232286
КВ. СУХОДОЛ,1170,42.696407,23.23038
ОКОЛОВРЪСТЕН ПЪТ,1171,42.642833,23.312964
ОКОЛОВРЪСТЕН ПЪТ,1172,42.631955,23.333502
КВ. СУХОДОЛ,1173,42.695305,23.230194
ОКОЛОВРЪСТЕН ПЪТ,1174,42.623019,23.405045
ОКОЛОВРЪСТЕН ПЪТ,1175,42.634139,23.333929
ОКОЛОВРЪСТЕН ПЪТ,1176,42.64279,23.312703
ОКОЛОВРЪСТЕН ПЪТ,1177,42.640553,23.312249
ОКОЛОВРЪСТЕН ПЪТ,1178,42.660354,23.265106
ОКОЛОВРЪСТЕН ПЪТ,1179,42.659539,23.264748
ОКОЛОВРЪСТЕН ПЪТ,1180,42.695831,23.230842
ОКОЛОВРЪСТЕН ПЪТ,1181,42.695981,23.229632
ОКОЛОВРЪСТЕН ПЪТ,1182,42.623114,23.405346
ОКОЛОВРЪСТЕН ПЪТ,1183,42.633636,23.443413
ОКОЛОВРЪСТЕН ПЪТ,1184,42.633992,23.443221
ОКОЛОВРЪСТЕН ПЪТ - ПО ЖЕЛАНИЕ,1185,42.779679,23.312986
ОКОЛОВРЪСТЕН ПЪТ - ПО ЖЕЛАНИЕ,1186,42.779106,23.313334
ПРОМИШЛЕНА ЗОНА - ЛОМСКО ШОСЕ,1189,42.754838,23.271954
ПРОМИШЛЕНА ЗОНА - ЛОМСКО ШОСЕ,1190,42.755167,23.271807
ОКОЛОВРЪСТЕН ПЪТ,1191,42.718233,23.232034
УМБАЛ СВ. АННА,1192,42.662102,23.375574
УМБАЛ СВ. АННА,1194,42.662648,23.376438
УМБАЛ СВ. АННА,1195,42.661937,23.375213
УМБАЛ СВ. АННА,1196,42.662763,23.376901
УМБАЛ СВ. АННА-УХО,1197,42.659938,23.374085
УМБАЛ СВ. АННА-УХО,1198,42.660195,23.374089
УЛ. ВРЪХ МАНЧО,1199,42.72151,23.280363
УЛ. ВРЪХ МАНЧО,1200,42.721695,23.281593
УЛ. ВРЪХ МАНЧО,1201,42.722141,23.280705
ОПИТНА СТАНЦИЯ,1202,42.621929,23.451121
ОПИТНА СТАНЦИЯ,1203,42.745009,23.399584
ОПИТНА СТАНЦИЯ,1204,42.744835,23.399626
ОПИТНА СТАНЦИЯ,1205,42.741441,23.404567
ОПИТНА СТАНЦИЯ,1206,42.741458,23.404725
ОПИТНА СТАНЦИЯ,1207,42.622598,23.450436
ОРАНЖЕРИЯТА - ПО ЖЕЛАНИЕ,1208,42.801692,23.33743
ОРАНЖЕРИЯТА - ПО ЖЕЛАНИЕ,1209,42.802019,23.336832
МОСТА НА БАНИШКА РЕКА - ПО ЖЕЛАНИЕ,1210,42.618273,23.357989
МОСТА НА БАНИШКА РЕКА - ПО ЖЕЛАНИЕ,1211,42.61843,23.358135
РАЗКЛОНА ЗА Д.БОГРОВ,1212,42.705386,23.486647
РАЗКЛОНА ЗА Д.БОГРОВ,1213,42.706098,23.489573
РАЗКЛОНА ЗА ВОЛУЯК,1214,42.775109,23.250499
РАЗКЛОНА ЗА ВОЛУЯК,1215,42.775056,23.250197
РАЗКЛОНА ЗА ЛИФТ ДРАГАЛЕВЦИ,1216,42.622245,23.304756
РАЗКЛОНА ЗА ЛИФТ ДРАГАЛЕВЦИ,1217,42.622309,23.30425
ОЦ ОВЧА КУПЕЛ,1218,42.688664,23.262299
ОЦ ОВЧА КУПЕЛ,1219,42.688088,23.263198
УЛ. ЗОРНИЦА,1220,42.763857,23.243909
УЛ. ЗОРНИЦА,1221,42.763364,23.243862
УЛ. НАДЕЖДА,1222,42.753927,23.434799
УЛ. НАДЕЖДА,1223,42.754159,23.434753
29-ТИ ДКЦ,1224,42.66387,23.296883
УЛ. ПАТРИАРХ ДАМЯН,1225,42.733379,23.301807
29-ТИ ДКЦ,1226,42.664306,23.297698
КВ. ФАКУЛТЕТА,1227,42.698163,23.272165
КВ. ФАКУЛТЕТА,1228,42.698251,23.272284
ЯЗ. ПАСАРЕЛ - ПО ЖЕЛАНИЕ,1229,42.549187,23.480196
ЯЗ. ПАСАРЕЛ - ПО ЖЕЛАНИЕ,1230,42.54935,23.480478
УЛ. ПАТРИАРХ ДАМЯН,1231,42.733331,23.302616
ЦЕНТЪРА  С. КРИВИНА,1232,42.680374,23.464241
ЦЕНТЪР КВ. БОТУНЕЦ,1235,42.739581,23.511352
ЦЕНТЪР КВ. БОТУНЕЦ,1236,42.739612,23.511612
ПАМЕТНИКА С. ДОБРОСЛАВЦИ,1237,42.821918,23.286217
ПАМЕТНИКА С. ДОБРОСЛАВЦИ,1238,42.822103,23.285627
ПАМЕТНИКА С. ДОБРОСЛАВЦИ,1239,42.822261,23.286086
ЦЕНТЪРА С. КРИВИНА,1240,42.680652,23.464054
ПЛ. ВАСИЛ ЛЕВСКИ,1241,42.69813,23.334977
ПЛ. ВАСИЛ ЛЕВСКИ,1242,42.697219,23.334951
КВ. ПАНЧАРЕВО,1243,42.596333,23.413264
КВ. ПАНЧАРЕВО,1244,42.596442,23.413491
ПАРАКЛИС СВ.ИВ.РИЛСКИ,1245,42.661765,23.273707
ПАРАКЛИС СВ.ИВ.РИЛСКИ,1246,42.661659,23.273541
ПАРК СВ.СВ.ПЕТЪР И ПАВЕЛ,1247,42.696681,23.296239
ПАРК СВ.СВ.ПЕТЪР И ПАВЕЛ,1248,42.696344,23.296034
ЗАПАДЕН ПАРК,1251,42.714884,23.283677
ЗАПАДЕН ПАРК,1252,42.716216,23.285115
ЗАПАДЕН ПАРК,1253,42.714986,23.284034
ПЕТА ГРАДСКА БОЛНИЦА,1254,42.713412,23.314985
ПЕТА ГРАДСКА БОЛНИЦА,1255,42.713676,23.314433
ПЛОЩАД  НА АВИАЦИЯТА,1257,42.668336,23.367234
ПЛОЩАД  НА АВИАЦИЯТА,1258,42.66966,23.368515
ПЛОЩАД  НА АВИАЦИЯТА,1259,42.669322,23.367
ПЛОЩАД НА АВИАЦИЯТА,1260,42.669999,23.36959
ПЕТТЕ МОГИЛИ,1262,42.733153,23.390132
ПЕТТЕ МОГИЛИ,1263,42.733005,23.389658
ПЛ. АЛ.НЕВСКИ,1264,42.696527,23.330223
ПЛ. АЛ.НЕВСКИ,1265,42.696365,23.330065
ПЛ. БИРИМИРЦИ,1266,42.737982,23.343333
ПЛ. БИРИМИРЦИ,1267,42.737295,23.343396
ПЛ. БИРИМИРЦИ,1268,42.737773,23.343664
ПЛ. ВЪЗРАЖДАНЕ,1269,42.697306,23.314875
ПЛ. ВЪЗРАЖДАНЕ,1270,42.697427,23.314304
ПЛ. ВЪЗРАЖДАНЕ,1271,42.698145,23.315166
ПЛ. ВЪЗРАЖДАНЕ,1272,42.698371,23.314074
ПЛ. ЖУРНАЛИСТ,1273,42.681014,23.332058
ПЛ. ЖУРНАЛИСТ,1274,42.681507,23.331762
ПЛ. ЛЪВОВ МОСТ,1275,42.705085,23.325422
ПЛ. ЛЪВОВ МОСТ,1276,42.704031,23.323573
ПЛ. ЛЪВОВ МОСТ,1277,42.7045,23.323777
ПЛ. ЛЪВОВ МОСТ,1278,42.704497,23.324987
ПЛ. МАКЕДОНИЯ,1279,42.694448,23.314786
ПЛ. МАКЕДОНИЯ,1280,42.694307,23.314406
ПЛ. МАКЕДОНИЯ,1281,42.694093,23.315119
ПЛ. МАКЕДОНИЯ,1282,42.693826,23.315005
ПЛ. МАКЕДОНИЯ,1283,42.694842,23.316951
ПЛ. МАКЕДОНИЯ,1284,42.694796,23.316016
ПЛ. МЕГДАНА,1285,42.821765,23.283058
ПЛ. МЕГДАНА,1286,42.821976,23.283122
ПЛ. ОРЛОВ МОСТ,1287,42.689337,23.3389
ПЛ. ОРЛОВ МОСТ,1288,42.689724,23.338864
ПЛ. ОРЛОВ МОСТ,1289,42.690305,23.336395
ПЛ. ОРЛОВ МОСТ,1290,42.690857,23.338975
ПЛ. ПИРДОП,1291,42.69918,23.361218
ПЛ. ПИРДОП,1292,42.698739,23.362456
ПЛ. ПИРДОП,1293,42.698779,23.36289
ПЛ. ПИРДОП,1294,42.699196,23.36074
ПЛ. РУСКИ ПАМЕТНИК,1295,42.69276,23.309977
ПЛ. РУСКИ ПАМЕТНИК,1296,42.691555,23.311152
ПЛ. РУСКИ ПАМЕТНИК,1297,42.691713,23.311253
ПЛ. РУСКИ ПАМЕТНИК,1298,42.692666,23.311199
ПЛ. РУСКИ ПАМЕТНИК,1299,42.691785,23.309799
ПЛ. РУСКИ ПАМЕТНИК,1300,42.693094,23.310031
ПЛ. РУЧЕЙ,1301,42.676991,23.297923
ПЛ. РУЧЕЙ,1302,42.678369,23.297804
ПЛ. РУЧЕЙ,1303,42.678272,23.298374
ПЛ. РУЧЕЙ,1304,42.676973,23.297639
ПЛ. РУЧЕЙ,1305,42.677149,23.29781
ПЛ. РУЧЕЙ,1306,42.676529,23.297157
ПЛ. СВ. НЕДЕЛЯ,1307,42.696426,23.320944
ПЛ. СВ. НЕДЕЛЯ,1308,42.697064,23.32097
ПЛ. СРЕД СЕЛО,1309,42.661267,23.243747
ПЛ. СРЕД СЕЛО,1310,42.661082,23.243444
ПЛ. СТОЧНА ГАРА,1311,42.705059,23.330924
ПЛ. СТОЧНА ГАРА,1312,42.705938,23.332676
ПЛ. СТОЧНА ГАРА,1313,42.704332,23.333157
ПЛ. СТОЧНА ГАРА,1314,42.70475,23.334097
ПЛ. СТОЧНА ГАРА,1315,42.705748,23.334422
ПЛ. СТОЧНА ГАРА,1316,42.70428,23.33449
ПЛ. СТОЧНА ГАРА,1318,42.705837,23.332484
ПЛ. СТОЧНА ГАРА,1319,42.704166,23.332928
ПЛ. СТОЧНА ГАРА,1321,42.704423,23.330553
ХОТЕЛ ХЕМУС,1322,42.677539,23.321756
ХОТЕЛ ХЕМУС,1324,42.678472,23.321204
ХОТЕЛ ХЕМУС,1325,42.678353,23.320604
УЛ. КЛОКОТНИЦА,1326,42.70852,23.31807
ПЛ. ЦЕНТРАЛНА ГАРА,1327,42.711109,23.320744
ПЛ. ЦЕНТРАЛНА ГАРА,1328,42.710698,23.318511
ПЛ. ЦЕНТРАЛНА ГАРА,1329,42.710997,23.320271
ПЛ. ЦЕНТРАЛНА ГАРА,1330,42.710927,23.318961
ПЛ. ЦЕНТРАЛНА ГАРА,1331,42.710683,23.318751
ПЛ. ЦЕНТРАЛНА ГАРА,1332,42.711246,23.319708
ПЛ. ЦЕНТРАЛНА ГАРА,1333,42.710804,23.320152
ПЛАЖА ПАНЧАРЕВО,1334,42.587312,23.420222
ПЛАЖА ПАНЧАРЕВО,1335,42.587924,23.419928
ПЛОДОХРАНИЛИЩЕ,1337,42.753702,23.247809
ПЛОЩАДА КВ. ВРАЖДЕБНА,1338,42.713246,23.418398
ПЛОЩАДА С. ВОЛУЯК,1339,42.773975,23.243056
ПЛОЩАДА С. ВОЛУЯК,1340,42.773427,23.242827
ПЛОЩАДА КВ. ВРАЖДЕБНА,1341,42.712422,23.419963
ПК ДИАНА,1342,42.666245,23.342245
ПК ДИАНА,1343,42.665175,23.342869
ПК СПАРТАК,1344,42.675467,23.314728
ПК СПАРТАК,1345,42.675557,23.315404
МОСТА НА СИМЕОНОВСКА РЕКА,1346,42.618635,23.334091
НАЧАЛО КВ Д. МИЛЕНКОВ,1348,42.659824,23.423475
НАЧАЛО КВ Д. МИЛЕНКОВ,1349,42.659919,23.423316
МОСТА НА СИМЕОНОВСКА РЕКА,1350,42.619028,23.333678
УЛ. БРЕЗИТЕ,1351,42.645614,23.27343
ПО ЖЕЛАНИЕ,1354,42.714886,23.436343
ПО ЖЕЛАНИЕ,1355,42.714957,23.436881
ПО ЖЕЛАНИЕ,1356,42.741803,23.555252
ПО ЖЕЛАНИЕ,1357,42.741393,23.555222
КАРИЕРНИ МАТЕРИАЛИ АД,1358,42.752755,23.421021
КАРИЕРНИ МАТЕРИАЛИ АД,1359,42.752284,23.420464
МАХАЛА ЧЕМЕРНИК - ПО ЖЕЛАНИЕ,1360,42.526201,23.368177
МАХАЛА ЧЕМЕРНИК - ПО ЖЕЛАНИЕ,1361,42.526123,23.368083
ПО ЖЕЛАНИЕ,1362,42.519896,23.363588
ПО ЖЕЛАНИЕ,1363,42.520082,23.363434
УЛ. ЦАР ИВАН АСЕН ІІ,1364,42.578673,23.415516
УЛ. ЦАР ИВАН АСЕН ІІ,1365,42.578626,23.415603
ПО ЖЕЛАНИЕ,1366,42.794356,23.412299
ПО ЖЕЛАНИЕ,1367,42.794369,23.412501
ПО ЖЕЛАНИЕ,1368,42.761161,23.244128
ПО ЖЕЛАНИЕ,1369,42.761342,23.244025
ПО ЖЕЛАНИЕ,1370,42.848655,23.267672
ПО ЖЕЛАНИЕ,1371,42.848923,23.267638
ПО ЖЕЛАНИЕ,1372,42.554975,23.364448
ПО ЖЕЛАНИЕ,1373,42.55609,23.364909
В.З. МАЛИНОВА ДОЛИНА,1374,42.624128,23.361521
РАЗКЛОНА  КВ. КРЕМИКОВЦИ,1375,42.737169,23.469316
РАЗКЛОНА  КВ. КРЕМИКОВЦИ,1376,42.737095,23.46963
УЛ. БРЕЗИТЕ,1377,42.645541,23.273475
ПО ЖЕЛАНИЕ,1378,42.711524,23.191934
ПО ЖЕЛАНИЕ,1379,42.711591,23.19199
НАЧАЛО КВ. ИВАНЯНЕ - ПО ЖЕЛАНИЕ,1380,42.709737,23.185403
НАЧАЛО КВ. ИВАНЯНЕ - ПО ЖЕЛАНИЕ,1381,42.709834,23.185383
БУЛ. ИЛИЯНЦИ-ПОДЛЕЗА,1384,42.721824,23.314131
БУЛ. ИЛИЯНЦИ-ПОДЛЕЗА,1385,42.719138,23.311441
ПОДСТАНЦИЯ МЕТАЛУРГИЧНА - ПО ЖЕЛАНИЕ,1386,42.777661,23.523582
ПОДСТАНЦИЯ МЕТАЛУРГИЧНА - ПО ЖЕЛАНИЕ,1387,42.777766,23.523453
БЛ. 11 Ж.К. ЛЮЛИН-1,1388,42.731086,23.248702
УЛ. ВЕНЕРА,1389,42.694367,23.148041
УЛ. ВЕНЕРА,1390,42.694467,23.148024
БЛ. 11 Ж.К. ЛЮЛИН-1,1391,42.730573,23.248101
БЪЛГАРСКА ТЕЛЕГРАФНА АГЕНЦИЯ,1394,42.685806,23.343942
БЪЛГАРСКА ТЕЛЕГРАФНА АГЕНЦИЯ,1395,42.685946,23.344261
ВИСШЕ УЧИЛИЩЕ ПО ТЕЛЕКОМУНИКАЦИИ И ПОЩИ,1396,42.655755,23.349389
ВИСШЕ УЧИЛИЩЕ ПО ТЕЛЕКОМУНИКАЦИИ И ПОЩИ,1397,42.656215,23.349611
ПОПОВА МАХАЛА,1398,42.493999,23.376653
ПОПОВА МАХАЛА,1399,42.493631,23.376592
ПОСОЛСТВАТА,1400,42.652726,23.367716
ПОСОЛСТВАТА,1401,42.653079,23.36784
УЛ. ХИСАРЯ,1403,42.709329,23.153623
28-МИ ПОЩЕНСКИ КЛОН,1406,42.663618,23.412522
ПОЩА КВ. КУРИЛО - ПО ЖЕЛАНИЕ,1407,42.821892,23.353854
ПОЩА КВ. КУРИЛО - ПО ЖЕЛАНИЕ,1408,42.82119,23.354062
28-МИ ПОЩЕНСКИ КЛОН,1409,42.663775,23.411223
28-МИ ПОЩЕНСКИ КЛОН,1410,42.663907,23.410969
28-МИ ПОЩЕНСКИ КЛОН,1411,42.663954,23.411691
ПРЕЧИСТВАТЕЛНА СТАНЦИЯ,1412,42.753875,23.352597
ПРЕЧИСТВАТЕЛНА СТАНЦИЯ - ПО ЖЕЛАНИЕ,1413,42.613763,23.363692
ПРЕЧИСТВАТЕЛНА СТАНЦИЯ - ПО ЖЕЛАНИЕ,1414,42.613904,23.363722
ПРЕЧИСТВАТЕЛНА СТАНЦИЯ,1415,42.753337,23.352359
УЛ. МАЛА КОРИЯ - ПО ЖЕЛАНИЕ,1416,42.651071,23.219268
УЛ. МАЛА КОРИЯ - ПО ЖЕЛАНИЕ,1417,42.651351,23.219851
ПРОСТОР,1418,42.695438,23.244574
ПРОСТОР,1419,42.695544,23.244091
ПТИЦЕФЕРМАТА,1420,42.725635,23.374198
ПТИЦЕФЕРМАТА,1421,42.725492,23.373716
ПЪРВА ГРАДСКА БОЛНИЦА,1422,42.688918,23.323128
ПЪРВА ГРАДСКА БОЛНИЦА,1423,42.689545,23.323334
НАЧАЛО КВ. МИХАЙЛОВО - ПО ЖЕЛАНИЕ,1424,42.704037,23.127492
НАЧАЛО КВ. МИХАЙЛОВО - ПО ЖЕЛАНИЕ,1425,42.704139,23.12743
РАЗКЛОНА ЗА С. ГЕРМАН,1426,42.635842,23.426735
РАЗКЛОНА ЗА С. ГЕРМАН - ПО ЖЕЛАНИЕ,1427,42.607572,23.400293
РАЗКЛОНА ЗА С. ГЕРМАН,1428,42.607776,23.400312
РАЗКЛОНА ЗА С. ГЕРМАН,1429,42.63619,23.426539
РАЗКЛОНА ЗА С. ГУРМАЗОВО,1430,42.726935,23.216208
РАЗКЛОНА ЗА С. ГУРМАЗОВО,1431,42.726451,23.214576
УЛ. РОДИНА - ПО ЖЕЛАНИЕ,1432,42.70828,23.130504
УЛ. РОДИНА - ПО ЖЕЛАНИЕ,1433,42.70816,23.130045
РАЗКЛОНА ЗА ЛЕТИЩЕТО,1434,42.707254,23.410564
РАЗКЛОНА ЗА ЛЕТИЩЕТО,1435,42.707299,23.408403
РАБОТИЛНИЦАТА,1436,42.697823,23.443794
РАБОТИЛНИЦАТА,1437,42.697723,23.443786
РЕЗИДЕНЦИЯ БОЯНА - ПО ЖЕЛАНИЕ,1439,42.648625,23.270333
МАХАЛА ЯПАДЖА,1440,42.709922,23.431526
МАХАЛА ЯПАДЖА,1441,42.709856,23.431751
ХАЙДУШКИ ЧУКАР - ПО ЖЕЛАНИЕ,1442,42.596833,23.354874
ХАЙДУШКИ ЧУКАР - ПО ЖЕЛАНИЕ,1443,42.597005,23.354857
РАЗКЛОНА ЗА МАГИСТРАЛА ХЕМУС,1444,42.733419,23.605177
РАЗКЛОНА ЗА МАГИСТРАЛА ХЕМУС,1445,42.733427,23.605376
РАЗКЛОНА ЗА С. ПЛАНА,1446,42.482992,23.409314
РАЗКЛОНА ЗА С. ПЛАНА,1447,42.483129,23.409376
РЕЗИДЕНЦИЯ БОЯНА - ПО ЖЕЛАНИЕ,1448,42.648835,23.26959
РАЗКЛОНА ЗА АП ДРУЖБА,1449,42.649639,23.413714
РАЗКЛОНА ЗА АП ДРУЖБА,1450,42.649168,23.413499
РАЗКЛОНА ЗА ЛЕТИЩЕТО,1451,42.671503,23.394998
РАЗКЛОНА ЗА ЛЕТИЩЕТО,1452,42.672198,23.394535
РАЗКЛОНА ЗА ЛЕТИЩЕТО,1453,42.671793,23.393071
РАЗКЛОНА ЗА ЛЕТИЩЕТО,1454,42.671635,23.393702
РАЗКЛОНА ЗА ЛЕТИЩЕТО,1455,42.671034,23.393566
РАЗКЛОНА ЗА КВ.ДРАГАЛЕВЦИ,1456,42.642261,23.311581
РАЗКЛОНА ЗА КВ.ДРАГАЛЕВЦИ,1457,42.640965,23.313534
РАЗКЛОНА ЗА КВ.СИМЕОНОВО,1458,42.633606,23.33271
РАЗКЛОНА ЗА КВ.СИМЕОНОВО,1459,42.632463,23.334468
РАЗСАДНИК МАЛО БУЧИНО,1460,42.68968,23.174944
РАЗСАДНИК МАЛО БУЧИНО,1461,42.689355,23.174544
РЕСТОРАНТ АЛЕКСАНДРИЯ,1462,42.685952,23.402043
РЕСТОРАНТ АЛЕКСАНДРИЯ,1463,42.685174,23.402315
НИМ,1464,42.65722,23.272759
НИМ,1465,42.657325,23.273493
РЕЗИДЕНЦИЯ ВРАНА,1466,42.634618,23.43585
РЕЗИДЕНЦИЯ ВРАНА,1467,42.634933,23.436141
РЕМОНТНА БАЗА,1468,42.713371,23.159444
БЛ. 4  Ж.К. СУХАТА РЕКА,1469,42.699071,23.365282
БЛ. 4  Ж.К. СУХАТА РЕКА,1470,42.699321,23.364823
ВОДЕНИЧАРСКИ МЕХАНИ-ПО ЖЕЛАНИЕ,1471,42.622492,23.309088
ВОДЕНИЧАРСКИ МЕХАНИ-ПО ЖЕЛАНИЕ,1472,42.622766,23.309237
РЕСТОРАНТ ЗЛАТНАТА РИБКА - ПО ЖЕЛАНИЕ,1473,42.56125,23.451743
РЕСТОРАНТ ЗЛАТНАТА РИБКА - ПО ЖЕЛАНИЕ,1474,42.561116,23.45174
БЛ. 6 Ж.К. СУХАТА РЕКА,1475,42.699848,23.36961
БЛ. 6 Ж.К. СУХАТА РЕКА,1476,42.700046,23.368854
УЛ. ДЕТЕЛИНА,1477,42.718338,23.227906
МОСТА С. ДОЛНИ БОГРОВ,1478,42.704106,23.492601
МОСТА С. ДОЛНИ БОГРОВ,1479,42.703862,23.492802
УЛ. КИТЕН,1480,42.625676,23.192835
УЛ. КИТЕН,1481,42.625327,23.192955
УЛ. ДЕТЕЛИНА,1482,42.71826,23.227619
МОСТА НА СУХАТА РЕКА,1483,42.621013,23.327271
МОСТА НА СУХАТА РЕКА,1484,42.620458,23.32781
РУДНИКА - ПО ЖЕЛАНИЕ,1485,42.767077,23.543475
РУДНИКА - ПО ЖЕЛАНИЕ,1486,42.767276,23.543286
БЛ. 405 Ж.К. ДРУЖБА-2,1487,42.642628,23.406885
БЛ. 405 Ж.К. ДРУЖБА-2,1488,42.642357,23.407214
РУМЪНСКО ПОСОЛСТВО,1489,42.686077,23.351273
РУМЪНСКО ПОСОЛСТВО,1490,42.685384,23.350922
РУМЪНСКО ПОСОЛСТВО,1491,42.685166,23.351236
РУМЪНСКО ПОСОЛСТВО,1492,42.685479,23.349947
РУСКО ПОСОЛСТВО,1493,42.67298,23.34775
РУСКО ПОСОЛСТВО,1496,42.672933,23.347467
САМОКОВСКО ШОСЕ,1497,42.635561,23.407094
САМОКОВСКО ШОСЕ,1498,42.635563,23.406924
НАЧАЛО С. ВЛАДАЯ - ПО ЖЕЛАНИЕ,1499,42.634527,23.195649
НАЧАЛО С. ВЛАДАЯ - ПО ЖЕЛАНИЕ,1500,42.633873,23.194887
САТИРИЧЕН ТЕАТЪР,1501,42.69227,23.326323
САТИРИЧЕН ТЕАТЪР,1502,42.691868,23.325532
СБА - ПО ЖЕЛАНИЕ,1503,42.619573,23.403389
СБА - ПО ЖЕЛАНИЕ,1504,42.619587,23.403277
МОСТА НА СУХОДОЛСКА РЕКА,1505,42.724473,23.324518
МОСТА НА СУХОДОЛСКА РЕКА,1506,42.724219,23.325437
ЧЕШМАТА - ПО ЖЕЛАНИЕ,1507,42.575934,23.359316
ЧЕШМАТА - ПО ЖЕЛАНИЕ,1508,42.576066,23.359176
СЕЛИМИЦА,1509,42.619884,23.189045
СЕЛИМИЦА,1510,42.620334,23.188935
СЕЛО БАЛША,1511,42.854498,23.264394
СЕЛО БИСТРИЦА,1512,42.586246,23.36055
СЕЛО БИСТРИЦА,1513,42.586331,23.359813
КМЕТСТВО ВЛАДАЯ,1514,42.628521,23.195772
КМЕТСТВО ВЛАДАЯ,1515,42.628324,23.195183
СЕЛО ВОЙНЕГОВЦИ,1516,42.803956,23.422871
СЕЛО ГЕРМАН,1517,42.609728,23.410454
СЕЛО ГОЛЯНОВЦИ,1518,42.828682,23.239369
СЕЛО ГОЛЯНОВЦИ,1519,42.828551,23.239138
СЕЛО ГОРНИ БОГРОВ,1520,42.717531,23.528693
СЕЛО ГОРНИ БОГРОВ,1521,42.718157,23.529278
СЕЛО ГОРНИ БОГРОВ,1522,42.71624,23.529764
СЕЛО ГОРНИ ЛОЗЕН,1523,42.601501,23.482977
СЕЛО ГОРНИ ЛОЗЕН,1524,42.601664,23.48285
СЕЛО ДОЛНИ БОГРОВ,1525,42.697232,23.496157
ЦЕНТЪР ДОЛНИ ЛОЗЕН,1526,42.603338,23.494213
ЦЕНТЪР ДОЛНИ ЛОЗЕН,1527,42.60375,23.493934
СЕЛО ДОЛНИ ПАСАРЕЛ,1528,42.541536,23.497983
СЕЛО ЖЕЛЕЗНИЦА,1530,42.535825,23.365519
СЕЛО ЖИТЕН,1533,42.818815,23.250863
СЕЛО ЖИТЕН,1534,42.818599,23.25121
СЕЛО ЖИТЕН,1536,42.818259,23.251046
СЕЛО КАЗИЧЕНЕ,1537,42.662293,23.464538
СЕЛО КАЗИЧЕНЕ,1538,42.662353,23.46464
СЕЛО КОКАЛЯНЕ,1539,42.576842,23.414507
СЕЛО КРИВИНА,1541,42.68194,23.462712
СЕЛО КРИВИНА,1542,42.682317,23.462499
СЕЛО КУБРАТОВО,1543,42.773064,23.362789
СЕЛО КУБРАТОВО,1544,42.773524,23.36295
СЕЛО КЪТИНА,1545,42.845205,23.319116
СЕЛО ЛОКОРСКО,1546,42.794488,23.447876
СЕЛО МАЛО БУЧИНО,1547,42.682028,23.160273
СЕЛО МАЛО БУЧИНО,1548,42.682079,23.159983
СЕЛО МИРОВЯНЕ - ПО ЖЕЛАНИЕ,1549,42.790381,23.303412
СЕЛО МРАМОР,1550,42.785336,23.273611
СЕЛО МРАМОР,1551,42.785832,23.273603
КМЕТСТВО МЪРЧАЕВО,1552,42.600079,23.170249
КМЕТСТВО МЪРЧАЕВО,1553,42.60028,23.170185
СЕЛО НЕГОВАН,1554,42.768787,23.405867
СЕЛО НЕГОВАН,1555,42.769099,23.404972
СЕЛО ПЛАНА,1556,42.48706,23.408746
СЕЛО СВЕТОВРАЧАНЕ,1557,42.782946,23.390338
СЕЛО СВЕТОВРАЧАНЕ,1559,42.783046,23.390919
КВ. ЧЕЛОПЕЧЕНЕ,1560,42.731679,23.47628
КВ. ЧЕЛОПЕЧЕНЕ,1561,42.731601,23.476242
СЕЛО ЧЕПИНЦИ,1562,42.757917,23.425745
СЕЛО ЧЕПИНЦИ,1563,42.75746,23.425621
СЕЛО ЧЕПИНЦИ,1564,42.757554,23.425726
СЕЛО ЧЕПИНЦИ,1565,42.758111,23.425577
ПГСС,1566,42.680127,23.25477
ПГСС,1567,42.679577,23.254382
СЕМИНАРИЯТА,1568,42.674625,23.333851
СЕМИНАРИЯТА,1569,42.674793,23.333817
СЕМИНАРИЯТА,1571,42.676077,23.33303
СЕМИНАРИЯТА,1572,42.676117,23.333247
СЕМИНАРИЯТА,1574,42.676638,23.333555
СЕПАРАЦИЯТА -  ПО ЖЕЛАНИЕ,1575,42.828629,23.341595
СЕПАРАЦИЯТА - ПО ЖЕЛАНИЕ,1576,42.828911,23.341238
ТЮФ,1577,42.676314,23.400986
ТЮФ,1578,42.676076,23.401215
РАЗКЛОНА ЗА КВ. ВРАЖДЕБНА,1579,42.709262,23.397113
БУЛ. ВЛАДИМИР ВАЗОВ,1580,42.705866,23.400463
РАЗКЛОНА ЗА КВ. ВРАЖДЕБНА,1581,42.708265,23.399847
РАЗКЛОНА ЗА КВ. ВРАЖДЕБНА,1582,42.709273,23.399919
БУЛ. ВЛАДИМИР ВАЗОВ,1583,42.705471,23.400727
СЕРВИЗ ПОЛМО,1584,42.729253,23.344235
СЕРВИЗ ПОЛМО,1585,42.72868,23.344226
СЛАТИНА БУЛГАРПЛОД,1586,42.678873,23.383401
СЛАТИНА БУЛГАРПЛОД,1587,42.678921,23.383226
БЛ.49 Ж.К.ДЪРВЕНИЦА,1588,42.650004,23.362662
БЛ.49 Ж.К.ДЪРВЕНИЦА,1589,42.649827,23.363217
СКИОРКАТА,1590,42.649003,23.261944
СКИОРКАТА - ПО ЖЕЛАНИЕ,1591,42.649712,23.261389
СКИОРКАТА - ПО ЖЕЛАНИЕ,1592,42.649706,23.260327
СОФИЯ МЕД АД,1593,42.65934,23.414952
СОФИЯ МЕД АД,1594,42.659659,23.415063
УЛ. ТИНТЯВА,1595,42.70015,23.14968
УЛ. ТИНТЯВА,1596,42.700136,23.149782
БАЛКАН СТАР,1597,42.710356,23.350378
БАЛКАН СТАР,1598,42.710981,23.350645
БАЛКАН СТАР,1599,42.710918,23.351331
СПИ ПРОФ. П. МУТАФЧИЕВ,1600,42.707778,23.413469
СПИ ПРОФ. П. МУТАФЧИЕВ,1601,42.708027,23.412434
ВИК - ЕАД - СОФИЯ,1602,42.638806,23.393509
ВИК - ЕАД - СОФИЯ,1603,42.638803,23.391716
НПМГ АКАД. ЛЮБОМИР ЧАКАЛОВ,1604,42.6686,23.32894
НПМГ АКАД. ЛЮБОМИР ЧАКАЛОВ,1605,42.668671,23.330121
СК НА НСА,1606,42.644015,23.345215
СК НА НСА - ПО ЖЕЛАНИЕ,1607,42.64395,23.353314
СК НА НСА - ПО ЖЕЛАНИЕ,1608,42.644064,23.353434
СК НА НСА,1609,42.64381,23.345024
СПОРТНА ЗАЛА ХР. БОТЕВ,1610,42.65111,23.342228
СПОРТНА ЗАЛА ХР. БОТЕВ,1611,42.651872,23.342517
СТАДИОН Г. АСПАРУХОВ,1612,42.70329,23.36481
СТАДИОН Г. АСПАРУХОВ,1613,42.706783,23.3621
СТАДИОН Г. АСПАРУХОВ,1614,42.703204,23.364239
СТАДИОН Г. АСПАРУХОВ,1615,42.707631,23.364429
НАЧАЛО С. ДОБРОСЛАВЦИ,1616,42.818445,23.280683
СТАДИОНА БАНКЯ,1617,42.712155,23.159054
СТАДИОНА БАНКЯ,1618,42.71163,23.158308
СТАДИОНА БАНКЯ - ПО ЖЕЛАНИЕ,1619,42.709687,23.160488
СТАДИОНА БАНКЯ - ПО ЖЕЛАНИЕ,1620,42.709734,23.160851
НАЧАЛО С. ДОБРОСЛАВЦИ,1621,42.818091,23.280677
СТАДИОНА КАЗИЧЕНЕ,1622,42.664678,23.460104
СТАДИОНА КАЗИЧЕНЕ,1623,42.66486,23.45999
В.З. КИТКАТА - ПО ЖЕЛАНИЕ,1624,42.572062,23.432398
В.З. КИТКАТА,1625,42.572082,23.432161
СТАРАТА ЧЕШМА - ПО ЖЕЛАНИЕ,1626,42.812146,23.377494
СТАРАТА ЧЕШМА - ПО ЖЕЛАНИЕ,1627,42.812053,23.377317
БУЛ. КРЪСТЬО ПАСТУХОВ,1628,42.667347,23.401515
БУЛ. КРЪСТЬО ПАСТУХОВ,1629,42.668422,23.401723
БУЛ. КРЪСТЬО ПАСТУХОВ,1630,42.667992,23.402038
БУЛ. КРЪСТЬО ПАСТУХОВ,1631,42.668243,23.401661
БУЛ. КРЪСТЬО ПАСТУХОВ,1632,42.667761,23.402804
ХЮНДАЙ БЪЛГАРИЯ,1633,42.74404,23.318006
ХЮНДАЙ БЪЛГАРИЯ,1634,42.744237,23.318117
ХЮНДАЙ БЪЛГАРИЯ,1635,42.743769,23.318289
ХЮНДАЙ БЪЛГАРИЯ,1636,42.744068,23.318359
ХЮНДАЙ БЪЛГАРИЯ,1637,42.743968,23.31789
КРАЯ С. БИСТРИЦА - ПО ЖЕЛАНИЕ,1638,42.578959,23.359647
КРАЯ С. БИСТРИЦА - ПО ЖЕЛАНИЕ,1639,42.578417,23.359571
ПРОМИШЛЕНА ЗОНА БУСМАНЦИ,1640,42.672393,23.438837
ПРОМИШЛЕНА ЗОНА БУСМАНЦИ,1641,42.672236,23.438988
УЛ. РУЧЕЙ,1642,42.71807,23.134053
УЛ. РУЧЕЙ,1643,42.718204,23.133931
ПРОМИШЛЕНА ЗОНА - ПО ЖЕЛАНИЕ,1644,42.718713,23.442964
ПРОМИШЛЕНА ЗОНА - ПО ЖЕЛАНИЕ,1645,42.718828,23.44277
НАЧАЛО С. ВОЙНЕГОВЦИ - ПО ЖЕЛАНИЕ,1646,42.798738,23.422047
НАЧАЛО С. ВОЙНЕГОВЦИ - ПО ЖЕЛАНИЕ,1647,42.798462,23.42181
МАХАЛА БАТАРЕЯТА,1648,42.709597,23.424099
МАХАЛА БАТАРЕЯТА,1649,42.70924,23.42442
НАЧАЛО С. ГОЛЯНОВЦИ,1650,42.825988,23.242396
НАЧАЛО С. ГОЛЯНОВЦИ,1651,42.825882,23.242414
ПРОМИШЛЕНА ЗОНА ГОРНИ ЛОЗЕН,1652,42.614542,23.460358
ПРОМИШЛЕНА ЗОНА ГОРНИ ЛОЗЕН,1653,42.613645,23.461337
ПРОМИШЛЕНА ЗОНА,1654,42.729499,23.382431
ПРОМИШЛЕНА ЗОНА,1655,42.729498,23.382264
КРАЯ С. ДОБРОСЛАВЦИ,1656,42.82781,23.284856
КРАЯ С. ДОБРОСЛАВЦИ,1657,42.827603,23.284792
ЕЗЕРОТО,1658,42.706083,23.473752
ЕЗЕРОТО,1659,42.706334,23.473594
СТРАННОПРИЕМНИЦАТА,1660,42.61424,23.501214
КРАЯ НА С. ЖЕЛЕЗНИЦА - ПО ЖЕЛАНИЕ,1661,42.529233,23.364426
КРАЯ НА С. ЖЕЛЕЗНИЦА - ПО ЖЕЛАНИЕ,1662,42.528956,23.364091
НАЧАЛО С. ЖЕЛЯВА,1663,42.738175,23.607091
НАЧАЛО С. ЖЕЛЯВА,1664,42.738241,23.607169
УЛ. ЦАР ИВАН ШИШМАН,1665,42.579563,23.4182
УЛ. ЦАР ИВАН ШИШМАН,1666,42.579591,23.41806
УЛ. ВЕСКО ВЕСЕЛИНОВ,1667,42.790432,23.44503
УЛ. ВЕСКО ВЕСЕЛИНОВ,1668,42.790315,23.445099
УЛ. ЛИПА,1669,42.686209,23.165825
УЛ. ЛИПА,1670,42.686081,23.165494
УЛ. СПОРТИСТ - ПО ЖЕЛАНИЕ,1671,42.786835,23.306607
УЛ. СПОРТИСТ - ПО ЖЕЛАНИЕ,1672,42.78623,23.307272
СТОПАНСТВО МИХАЙЛОВО - ПО ЖЕЛАНИЕ,1673,42.70059,23.125972
СТОПАНСТВО МИХАЙЛОВО - ПО ЖЕЛАНИЕ,1674,42.700572,23.125847
НАЧАЛО С. МРАМОР - ПО ЖЕЛАНИЕ,1675,42.779492,23.274004
НАЧАЛО С. МРАМОР - ПО ЖЕЛАНИЕ,1676,42.779012,23.274171
УЛ. 19,1677,42.602015,23.165945
УЛ. 19,1678,42.602133,23.165798
НАЧАЛО С. ПОДГУМЕР - ПО ЖЕЛАНИЕ,1679,42.797699,23.398123
НАЧАЛО С. ПОДГУМЕР - ПО ЖЕЛАНИЕ,1680,42.797596,23.397889
УЛ. ПРИЛЕП,1681,42.69689,23.217978
УЛ. ПРИЛЕП,1682,42.696994,23.218711
НАЧАЛО КВ. ТРЕБИЧ - ПО ЖЕЛАНИЕ,1683,42.771348,23.315666
НАЧАЛО КВ. ТРЕБИЧ - ПО ЖЕЛАНИЕ,1684,42.771697,23.315848
ПРОМИШЛЕНА ЗОНА,1685,42.731784,23.229773
ПРОМИШЛЕНА ЗОНА,1686,42.73142,23.228607
МОСТА НА ЛЕСНОВСКА РЕКА,1687,42.733405,23.466037
МОСТА НА ЛЕСНОВСКА РЕКА,1688,42.732747,23.46615
МОСТА НА ЛЕСНОВСКА РЕКА,1689,42.732676,23.466436
МОСТА НА ЛЕСНОВСКА РЕКА,1690,42.733044,23.465461
УНСС,1691,42.652413,23.34744
УНСС,1692,42.651849,23.348729
СТУДЕНТСКИ ГРАД,1693,42.646826,23.346609
СТУДЕНТСКИ ГРАД,1694,42.646562,23.346452
Ж.К. ИЗТОК,1695,42.671998,23.363894
Ж.К. ИЗТОК,1696,42.671512,23.364052
СУ СВ. КЛИМЕНТ ОХРИДСКИ,1697,42.694303,23.335411
СУ СВ. КЛИМЕНТ ОХРИДСКИ,1698,42.694722,23.334658
СУ СВ. КЛИМЕНТ ОХРИДСКИ,1699,42.694903,23.334938
СУ СВ. КЛИМЕНТ ОХРИДСКИ,1700,42.692201,23.335287
ПРОМИШЛЕНА ЗОНА КАЗИЧЕНЕ,1701,42.66767,23.447683
ПРОМИШЛЕНА ЗОНА КАЗИЧЕНЕ,1702,42.668078,23.447027
МАГАЗИН ВИТОША,1703,42.71332,23.248737
МАГАЗИН ВИТОША,1704,42.712158,23.247188
МАГАЗИН ВИТОША,1705,42.713141,23.247246
ПАЗАРА ОВЧА КУПЕЛ,1706,42.684273,23.24121
СУПЕРМАРКЕТ,1707,42.736713,23.515495
ПАЗАРА ОВЧА КУПЕЛ,1708,42.683845,23.241754
ТЪРГОВСКИ К-С ОБЕЛЯ,1709,42.742402,23.280784
ТЪРГОВСКИ К-С ОБЕЛЯ,1710,42.742291,23.281006
МАГАЗИН ВИТОША,1711,42.713155,23.248407
МАГАЗИН ВИТОША,1712,42.712214,23.247425
МОСТА НА СУХАТА РЕКА,1713,42.629296,23.333367
МОСТА НА СУХАТА РЕКА,1714,42.629622,23.33333
ОБЩИНА ЛЮЛИН,1715,42.715069,23.250457
ОБЩИНА ЛЮЛИН,1716,42.716425,23.250443
ОБЩИНА ЛЮЛИН,1717,42.715459,23.25061
ОБЩИНА ЛЮЛИН,1718,42.716397,23.251597
ОБЩИНА ЛЮЛИН,1719,42.716535,23.249882
СЪДЕБНА ПАЛАТА,1720,42.695982,23.318691
СЪДЕБНА ПАЛАТА,1721,42.69522,23.318378
ПГВАД,1722,42.72793,23.322799
ПГВАД,1723,42.728013,23.323811
ТЕАТЪР СОФИЯ,1724,42.695728,23.346519
ТЕАТЪР СОФИЯ,1725,42.696801,23.347239
ТЕАТЪР СОФИЯ,1726,42.696264,23.346038
ТЕАТЪР СОФИЯ,1727,42.696227,23.345946
ТЕАТЪР СОФИЯ,1728,42.696062,23.34755
ТЕЛЕВИЗИОННА КУЛА,1729,42.676402,23.343045
ТЕЛЕВИЗИОННА КУЛА,1730,42.677188,23.341141
ТЕЛЕВИЗИОННА КУЛА,1733,42.677835,23.34245
ТЕРСНАБ,1734,42.735584,23.329069
ТЕРСНАБ,1735,42.735602,23.328946
ПГ ПО ДИЗАЙН ЕЛИСАВЕТА ВАЗОВА,1736,42.680567,23.306819
ПГ ПО ДИЗАЙН ЕЛИСАВЕТА ВАЗОВА,1737,42.680925,23.307327
ПГ ПО ДИЗАЙН ЕЛИСАВЕТА ВАЗОВА,1738,42.680974,23.307658
ПГ ПО ДИЗАЙН ЕЛИСАВЕТА ВАЗОВА,1739,42.680825,23.306532
ТЕХНИЧЕСКИ УНИВЕРСИТЕТ,1740,42.65665,23.359054
ТЕХНИЧЕСКИ УНИВЕРСИТЕТ,1743,42.657638,23.359255
УЛ. ПОДПОР.ЙОРДАН ТОДОРОВ,1744,42.672687,23.406272
УЛ. ПОДПОР.ЙОРДАН ТОДОРОВ,1745,42.673493,23.405177
ТЕЦ СОФИЯ,1747,42.717128,23.320256
ТЕЦ СОФИЯ,1748,42.716706,23.32072
ТЕЦ ИЗТОК,1749,42.650982,23.413901
ТЕЦ ИЗТОК,1750,42.650599,23.41372
ПП УСПЕХ,1751,42.731599,23.253358
ПП УСПЕХ,1752,42.73223,23.252708
УЛ. ВИТИНЯ,1753,42.708424,23.369672
УЛ. ВИТИНЯ,1754,42.708759,23.369176
ОБЩИНА КРЕМИКОВЦИ,1755,42.736234,23.486525
ОБЩИНА КРЕМИКОВЦИ,1756,42.736081,23.486374
ТОЛЕВА МАХАЛА,1757,42.749315,23.221458
ТОЛЕВА МАХАЛА,1758,42.74999,23.220429
115-ТИ ПОЩЕНСКИ КЛОН,1759,42.632455,23.380418
115-ТИ ПОЩЕНСКИ КЛОН,1760,42.631765,23.380314
ТПК ХЕМУС,1761,42.7345,23.328326
ТПК ХЕМУС,1762,42.734198,23.327978
ПГХМБТ ПРОФ. П. РАЙКОВ,1763,42.732342,23.312233
ПГХМБТ ПРОФ. П. РАЙКОВ,1764,42.732466,23.3121
УЛ. ТРАКИЙСКА МОГИЛА,1765,42.78376,23.394917
УЛ. ТРАКИЙСКА МОГИЛА,1766,42.783545,23.394537
УЛ. АКАЦИЯ - ПО ЖЕЛАНИЕ,1767,42.649173,23.251561
ПЪТЕН ВЪЗЕЛ ЯНА - ПО ЖЕЛАНИЕ,1768,42.722677,23.541655
ПЪТЕН ВЪЗЕЛ ЯНА - ПО ЖЕЛАНИЕ,1769,42.722668,23.542327
УЛ. АКАЦИЯ - ПО ЖЕЛАНИЕ,1770,42.649059,23.251548
ТРД,1771,42.753697,23.273215
ТРД,1772,42.753269,23.273488
16-ТИ ДКЦ,1773,42.738606,23.506744
16-ТИ ДКЦ,1774,42.738679,23.506578
КВ. ТРИЪГЪЛНИКА,1775,42.719431,23.309557
КВ. ТРИЪГЪЛНИКА,1776,42.71934,23.309228
КВ. ТРИЪГЪЛНИКА,1777,42.719626,23.309219
КВ. ТРИЪГЪЛНИКА,1778,42.719727,23.309184
ТРИЪГЪЛНИКА КВ. ГОРУБЛЯНЕ,1779,42.64186,23.402717
ТРИЪГЪЛНИКА КВ. ГОРУБЛЯНЕ,1780,42.641972,23.402755
ТРИЪГЪЛНИКА Ж.К. ЛЮЛИН,1781,42.725341,23.264749
БУЛ. ПАНЧО ВЛАДИГЕРОВ,1782,42.724061,23.257796
ТРИЪГЪЛНИКА Ж.К. ЛЮЛИН,1783,42.72475,23.265519
ТРЪНСКА МАХАЛА,1784,42.668817,23.425326
ТРЪНСКА МАХАЛА,1785,42.668261,23.424671
С. МЪРЧАЕВО-ТОЛУМСКА МАХАЛА,1786,42.594453,23.160842
ТУРМАЧКА МАХАЛА,1787,42.479563,23.411375
ТЪРГОВСКИ Ц-Р ЛЮЛИН,1788,42.71856,23.253458
ТЪРГОВСКИ Ц-Р ЛЮЛИН,1789,42.718054,23.2534
УЛ. 10,1790,42.63457,23.303736
УЛ. 10,1791,42.634221,23.30421
УЛ. 2,1792,42.742971,23.272973
УЛ. 2,1793,42.742889,23.27301
УЛ. 3,1794,42.713077,23.402926
УЛ. 3,1795,42.713152,23.402936
УЛ. ДЕМОКРАЦИЯ,1796,42.68403,23.163706
УЛ. ДЕМОКРАЦИЯ,1797,42.684087,23.163636
УЛ. 308,1798,42.718537,23.246493
УЛ. 308,1799,42.718219,23.246787
УЛ. ИВАН АНДОНОВ,1800,42.657156,23.310961
УЛ. ИВАН АНДОНОВ,1801,42.657329,23.310172
УЛ. 5,1802,42.635369,23.299415
УЛ. 5,1803,42.635334,23.300009
УЛ. 507,1804,42.692009,23.382777
УЛ. 507,1805,42.691619,23.382167
УЛ. 6-ТИ СЕПТЕМВРИ,1806,42.686537,23.324264
УЛ. 6-ТИ СЕПТЕМВРИ,1807,42.684321,23.325929
УЛ. 6-ТИ СЕПТЕМВРИ,1808,42.684859,23.325287
УЛ. 605,1809,42.71449,23.253821
УЛ. 605,1810,42.715083,23.252886
УЛ. 61,1811,42.71034,23.402836
УЛ. 61,1812,42.710522,23.402844
УЛ. 640,1813,42.68109,23.244782
УЛ. 640,1814,42.680312,23.246045
УЛ. 9,1815,42.742891,23.26898
УЛ. 9 - ПО ЖЕЛАНИЕ,1816,42.634675,23.353929
УЛ. 9,1817,42.742962,23.269981
УЛ. 9 - ПО ЖЕЛАНИЕ,1818,42.635016,23.353929
УЛ. АЛЕКСАНДЪР ЖЕНДОВ,1819,42.677746,23.355825
УЛ. АЛЕКСАНДЪР ЖЕНДОВ,1820,42.677331,23.355905
УЛ. АЛЕКО КОНСТАНТИНОВ,1821,42.696352,23.349264
УЛ. АЛЕКО КОНСТАНТИНОВ,1822,42.696438,23.349532
УЛ. АЛЕКСАНДЪР ЖЕНДОВ,1823,42.680995,23.356778
УЛ. АЛЕКСАНДЪР ЖЕНДОВ,1824,42.680662,23.357159
УЛ. АНГЕЛ ВОЙВОДА,1825,42.707949,23.357364
УЛ. АНГЕЛ ВОЙВОДА,1826,42.70661,23.358008
УЛ. ЛАЗАРОПОЛЕ,1827,42.663245,23.245633
УЛ. ЛАЗАРОПОЛЕ,1828,42.663653,23.246418
УЛ. АТАНАС УЗУНОВ,1829,42.689395,23.364333
УЛ. АТАНАС УЗУНОВ,1830,42.690795,23.363765
УЛ. БАБА ТОНКА - ПО ЖЕЛАНИЕ,1831,42.815507,23.352339
УЛ. БАБА ТОНКА - ПО ЖЕЛАНИЕ,1832,42.815238,23.352113
УЛ. БАЕВИЦА - ПО ЖЕЛАНИЕ,1833,42.648975,23.256246
УЛ. БАЕВИЦА - ПО ЖЕЛАНИЕ,1834,42.649126,23.256505
УЛ. БАЙКАЛ,1835,42.648292,23.264256
УЛ. БАЙКАЛ,1836,42.647982,23.264764
УЛ. БЕЛИ ДУНАВ,1838,42.73319,23.288405
УЛ. БЯЛАТА ЧЕШМА,1839,42.645869,23.245067
УЛ. БЕСАРАБИЯ,1840,42.706755,23.373866
УЛ. БЕСАРАБИЯ,1841,42.698478,23.37295
УЛ. БЕСАРАБИЯ,1842,42.706796,23.373504
УЛ. БЕСАРАБИЯ,1843,42.69951,23.375384
УЛ. БОРЯНА,1844,42.673421,23.25305
УЛ. БОРЯНА,1845,42.673886,23.252398
УЛ. БОЯН МАГЕСНИК,1846,42.694101,23.366295
УЛ. БОЯН МАГЕСНИК,1847,42.694055,23.366537
УЛ. БУРЯ,1848,42.669089,23.244112
УЛ. БУРЯ,1849,42.668585,23.244452
УЛ. БЪДЕЩЕ - ПО ЖЕЛАНИЕ,1850,42.811122,23.351023
УЛ. БЪДЕЩЕ - ПО ЖЕЛАНИЕ,1851,42.810286,23.350595
УЛ. БЪЛГАРСКИ ВОИН,1852,42.718809,23.223753
УЛ. БЪЛГАРСКИ ВОИН,1853,42.718861,23.223845
УЛ. СТАР БЕЛОВОДСКИ ПЪТ - ПО ЖЕЛАНИЕ,1854,42.647779,23.245624
УЛ. СТАР БЕЛОВОДСКИ ПЪТ - ПО ЖЕЛАНИЕ,1855,42.64726,23.247106
УЛ. БЯЛО МОРЕ,1856,42.699269,23.339726
УЛ. БЯЛО МОРЕ,1857,42.702277,23.338825
УЛ. БЯЛО МОРЕ,1858,42.699047,23.339166
УЛ. БЯЛО МОРЕ,1859,42.701859,23.339263
УЛ. ВАСИЛ КЪНЧЕВ,1860,42.71195,23.355064
УЛ. ВАСИЛ КЪНЧЕВ,1861,42.711401,23.353515
УЛ. ВАСИЛ КЪНЧЕВ,1862,42.705005,23.357606
УЛ. ВАСИЛ КЪНЧЕВ,1863,42.705279,23.359839
УЛ. ВАСИЛ ПЕТЛЕШКОВ,1864,42.705685,23.347799
УЛ. ВЕЛЧО АТАНАСОВ,1865,42.696419,23.360062
УЛ. ВЕЛЧО АТАНАСОВ,1866,42.696759,23.359673
УЛ. ВЕЛЧО АТАНАСОВ,1867,42.696069,23.361574
УЛ. ВИДИНИ КУЛИ,1868,42.705927,23.344888
УЛ. ВИТИНЯ,1869,42.705482,23.369634
УЛ. ВИТИНЯ,1870,42.700644,23.373994
УЛ. ВИТИНЯ,1871,42.705444,23.369168
УЛ. ВИТИНЯ,1872,42.700507,23.372171
УЛ. ВИТИНЯ,1873,42.700845,23.374329
УЛ. ВИТИНЯ,1874,42.700593,23.371876
УЛ. ВИХРЕН,1875,42.66531,23.275306
ЯЗ. МАЛО БУЧИНО,1876,42.697034,23.19107
ЯЗ. СУХОДОЛ,1877,42.705829,23.230268
УЛ. ВИХРЕН,1878,42.664733,23.274932
УЛ. ВИШНЕВА,1879,42.678498,23.333689
УЛ. ВИШНЕВА,1880,42.678258,23.333702
УЛ. ВИШОВГРАД,1881,42.712959,23.308207
УЛ. ВЛАДАЙСКО ВЪСТАНИЕ - ПО ЖЕЛАНИЕ,1882,42.654496,23.228863
УЛ. ВЛАДАЙСКО ВЪСТАНИЕ - ПО ЖЕЛАНИЕ,1883,42.654323,23.227609
УЛ. ВЪЗРОЖДЕНСКА,1884,42.723477,23.300706
УЛ. ВЪЗРОЖДЕНСКА,1885,42.723453,23.302033
УЛ. ГЕОРГИ РАКОВСКИ,1886,42.686731,23.322861
115-ТО ОУ,1887,42.722484,23.531035
115-ТО ОУ,1888,42.722197,23.530788
УЛ. ГЕН. АС. НИКОЛОВ,1889,42.720626,23.264382
УЛ. ГЕН. АС. НИКОЛОВ,1890,42.720798,23.265262
УЛ. ГЕН. АС. НИКОЛОВ,1891,42.7213,23.26444
УЛ. ГЕН. ВЛ. ДИНЧЕВ,1892,42.717941,23.273151
УЛ. ГЕН. ВЛ. ДИНЧЕВ,1893,42.717276,23.274152
УЛ. ГЕН. НИКОЛА ГЕНЕВ,1894,42.716234,23.268312
УЛ. ГЕН. НИКОЛА ГЕНЕВ,1895,42.715861,23.267728
УЛ. ГЕН. НИКОЛА ГЕНЕВ,1896,42.71943,23.263422
УЛ. ГЕН. НИКОЛА ГЕНЕВ,1897,42.718991,23.262762
УЛ. ГЕН. НИКОЛА ЖЕКОВ,1898,42.733609,23.308148
УЛ. ГЕН. НИКОЛА ЖЕКОВ,1899,42.733541,23.308838
УЛ. ГЕН. НИКОЛА ЖЕКОВ,1901,42.73411,23.308624
УЛ. ГЕН. ГУРКО,1902,42.689778,23.33079
УЛ. ГЕН. ГУРКО,1903,42.690596,23.332088
УЛ. ГЕО МИЛЕВ,1904,42.682582,23.362788
УЛ. ГЕО МИЛЕВ,1905,42.682183,23.362485
УЛ. Г. БЕНКОВСКИ,1906,42.758893,23.20515
УЛ. Г. БЕНКОВСКИ,1907,42.758775,23.205604
ПЛ. СЛАВЕЙКОВ,1908,42.69154,23.324809
ПЛ. СЛАВЕЙКОВ,1909,42.69134,23.325122
УЛ. ГИНЦИ,1910,42.708303,23.361085
УЛ. ГОЦЕ ДЕЛЧЕВ,1911,42.712719,23.274479
УЛ. ГОЦЕ ДЕЛЧЕВ,1912,42.712555,23.273866
УЛ. ГРАФ ИГНАТИЕВ,1913,42.686644,23.332017
УЛ. ГРАФ ИГНАТИЕВ,1914,42.68641,23.330028
УЛ. ГРОЗДЕН,1915,42.748569,23.319547
УЛ. ГРОЗДЕН,1916,42.748334,23.319244
МЕТРОСТАНЦИЯ АКАД. А. Т.- БАЛАН,1917,42.641923,23.3734
МЕТРОСТАНЦИЯ АКАД. А. Т.- БАЛАН,1918,42.640856,23.373939
МЕТРОСТАНЦИЯ АКАД. А. Т.- БАЛАН,1919,42.640543,23.372175
УЛ. ДАМЕ ГРУЕВ - ПО ЖЕЛАНИЕ,1920,42.695006,23.120767
УЛ. ДАМЕ ГРУЕВ - ПО ЖЕЛАНИЕ,1921,42.695103,23.120737
УЛ. ДАМЯНИЦА,1922,42.667109,23.250592
УЛ. ДАМЯНИЦА,1923,42.666498,23.249553
УЛ. ГЕОРГИ МИНЧЕВ,1924,42.689932,23.359013
УЛ. ДИМИТЪР ПЕТКОВ,1925,42.700045,23.299947
УЛ. ДИМИТЪР ПЕТКОВ,1926,42.699992,23.300584
УЛ. ДИМИТЪР ПЕТКОВ,1927,42.702793,23.300809
УЛ. ДИМИТЪР ПЕТКОВ,1928,42.702731,23.30144
УЛ. ДИМИТЪР ПЕШЕВ,1929,42.640307,23.413
УЛ. ДИМИТЪР ПЕШЕВ,1930,42.640414,23.413095
УЛ. ДОБРОТИЧ,1931,42.693487,23.282233
УЛ. ДОБРОТИЧ,1932,42.693023,23.281646
УЛ. ДОБРОТИЧ,1933,42.69335,23.282203
УЛ. ДОБРОТИЧ,1934,42.692698,23.28083
УЛ. ДОЙРАН,1935,42.678638,23.292205
УЛ. ДОЙРАН,1936,42.67835,23.290705
УЛ. ДРАВА,1937,42.717927,23.217905
УЛ. ДРАВА,1938,42.717818,23.217894
УЛ. ДУНАВ,1939,42.707875,23.329735
УЛ. ДУНАВ,1940,42.707851,23.329423
УЛ. СТАРА ПЛАНИНА,1942,42.711729,23.144349
УЛ. СТАРА ПЛАНИНА,1943,42.711687,23.144505
ЦЕНТРАЛЕН ГРОБИЩЕН ПАРК,1944,42.711139,23.332277
ЦЕНТРАЛЕН ГРОБИЩЕН ПАРК,1945,42.711427,23.332857
УЛ. ЗЛАТИЦА,1946,42.707298,23.35504
УЛ. ЗЛАТИЦА,1947,42.707482,23.353565
УЛ. ЗОГРАФСКИ МАНАСТИР,1948,42.706698,23.292195
УЛ. ЗОГРАФСКИ МАНАСТИР,1949,42.7063,23.293171
УЛ. ИВАН ЙОСИФОВ,1950,42.712644,23.303174
УЛ. ИВАН ЙОСИФОВ,1951,42.713752,23.304081
УЛ. ИВАН КРАЛИЧА,1952,42.737195,23.340306
УЛ. ИВАН КРАЛИЧА,1953,42.736804,23.339206
УЛ. ИВАН ЩЕРЕВ,1955,42.690385,23.371936
УЛ. ЛЮЛЯК - ПО ЖЕЛАНИЕ,1957,42.532452,23.365177
УЛ. ИЛИЯ БЕШКОВ,1958,42.662175,23.404713
УЛ. ИЛИЯ БЕШКОВ,1959,42.662158,23.404875
УЛ. ИНДИРА ГАНДИ,1960,42.709546,23.260386
УЛ. ИНДИРА ГАНДИ,1961,42.709589,23.259965
УЛ. ИСКЪР,1962,42.699532,23.329571
УЛ. ИСКЪР,1963,42.700139,23.329585
УЛ. ИСКЪР,1964,42.700917,23.333914
УЛ. ИСКЪР,1965,42.701691,23.333913
КВ. КИНОЦЕНТЪР,1966,42.649322,23.294305
КВ. КИНОЦЕНТЪР,1967,42.648699,23.294771
УЛ. ЙОСИФ ЩРОСМАЙЕР,1968,42.712282,23.300582
УЛ. ЙОСИФ ЩРОСМАЙЕР,1969,42.711701,23.301043
УЛ. ЙОСИФ ЩРОСМАЙЕР,1970,42.711549,23.300784
УЛ. ЙОСИФ ЩРОСМАЙЕР,1971,42.711801,23.300152
УЛ. КАЛИМАНЦИ,1972,42.690839,23.354502
УЛ. КАЛИМАНЦИ,1973,42.687225,23.365789
УЛ. КАЛИМАНЦИ,1974,42.687263,23.365927
УЛ. КАЛИМАНЦИ,1975,42.689983,23.353587
УЛ. КАМЕН АНДРЕЕВ,1976,42.695128,23.302301
УЛ. КАМЕН АНДРЕЕВ,1977,42.69547,23.30048
УЛ. КАМЕНОДЕЛСКА,1978,42.71524,23.341033
УЛ. КАП. Д. СПИСАРЕВСКИ,1979,42.672672,23.387892
УЛ. КАП. Д. СПИСАРЕВСКИ,1980,42.672758,23.387676
УЛ. КАП. В. ДАНАДЖИЕВ,1981,42.713844,23.245693
УЛ. КАП. В. ДАНАДЖИЕВ,1982,42.71454,23.244702
УЛ. КАП. Д. СПИСАРЕВСКИ,1983,42.673293,23.386288
УЛ. КАП. Д. СПИСАРЕВСКИ,1984,42.667404,23.385584
УЛ. КАП. Д. СПИСАРЕВСКИ,1985,42.668267,23.385097
УЛ. КАП. Д. СПИСАРЕВСКИ,1986,42.671636,23.386864
УЛ. КИРИЛ БЛАГОЕВ,1987,42.750877,23.32035
УЛ. КИРИЛ БЛАГОЕВ,1988,42.751077,23.320318
УЛ. КИРИЛ ХРИСТОВ,1989,42.769374,23.359365
УЛ. КИРИЛ ХРИСТОВ,1990,42.769565,23.359423
УЛ. КИТКАТА - ПО ЖЕЛАНИЕ,1991,42.687647,23.119178
УЛ. КИТКАТА - ПО ЖЕЛАНИЕ,1992,42.687491,23.119041
УЛ. КЛОКОТНИЦА,1993,42.708222,23.318105
УЛ. КЛОКОТНИЦА,1994,42.708624,23.318237
ПЛ. ГАРИБАЛДИ,1996,42.693767,23.322739
ПЛ. ГАРИБАЛДИ,1997,42.694337,23.322435
УЛ. КНЯЗ БОРИС I,1998,42.704722,23.322838
УЛ. КНЯЗ БОРИС I,1999,42.705391,23.322164
УЛ. КОЗЛОДУЙ,2000,42.706899,23.323771
УЛ. КОЗЛОДУЙ,2001,42.706998,23.32456
УЛ. КОЗЛОДУЙ,2002,42.707478,23.32319
УЛ. КОЗЛОДУЙ,2003,42.706964,23.323295
УЛ. КОНСТАНТИН БОДИН,2004,42.72545,23.291735
УЛ. КОНСТАНТИН БОДИН,2005,42.724906,23.292261
УЛ. КОСТЕНСКИ ВОДОПАД,2008,42.666161,23.299902
УЛ. КОСТЕНСКИ ВОДОПАД,2009,42.66568,23.302
УЛ. КОСТЕНСКИ ВОДОПАД,2010,42.666308,23.300332
УЛ. КОСТЕНСКИ ВОДОПАД,2011,42.667094,23.300421
УЛ. КРАКРА,2012,42.69724,23.337869
ВТУ Т. КАБЛЕШКОВ,2013,42.679387,23.378717
ВТУ Т. КАБЛЕШКОВ,2014,42.678998,23.378469
УЛ. КРУМ СТОЯНОВ,2015,42.714034,23.298438
УЛ. КРУМ СТОЯНОВ,2016,42.713758,23.298456
УЛ. ЛАТИНКА,2019,42.581581,23.421758
УЛ. ЛАТИНКА,2020,42.581635,23.421795
АВТОСТАНЦИЯ ИЗТОК,2021,42.703238,23.388528
АВТОСТАНЦИЯ ИЗТОК,2022,42.703015,23.386039
АВТОСТАНЦИЯ ИЗТОК,2023,42.703268,23.387659
АВТОСТАНЦИЯ ИЗТОК,2024,42.703209,23.386332
УЛ. ЛЕШНИКОВА ГОРА,2025,42.630676,23.306391
УЛ. ЛЕШНИКОВА ГОРА,2026,42.630195,23.306789
УЛ. ЛИВАДИТЕ - ПО ЖЕЛАНИЕ,2027,42.816741,23.373946
УЛ. ЛИВАДИТЕ - ПО ЖЕЛАНИЕ,2028,42.816918,23.373873
УЛ. ЛИЛЯЧЕ,2029,42.686515,23.266051
УЛ. ЛИЛЯЧЕ,2030,42.685734,23.266966
УЛ. ЛИЛЯЧЕ,2031,42.687587,23.265945
УЛ. ЛИЛЯЧЕ,2032,42.687549,23.266942
УЛ. ЛУИ АЙЕР,2033,42.662825,23.303446
УЛ. ЛУИ АЙЕР,2034,42.656128,23.297669
УЛ. ЛУИ АЙЕР,2035,42.655858,23.29771
УЛ. ЛУИ АЙЕР,2036,42.664107,23.302625
УЛ. ЛЮБЛЯНА,2037,42.674935,23.263898
УЛ. ЛЮБОТРЪН,2038,42.668719,23.319339
УЛ. ЛЮБОТРЪН,2039,42.668501,23.319263
УЛ. МАКГАХАН,2040,42.706323,23.350868
УЛ. МАКГАХАН,2041,42.703039,23.35127
УЛ. МАКГАХАН,2042,42.706499,23.350179
УЛ. МАЛОМИР,2043,42.655667,23.265547
УЛ. МАЛОМИР,2044,42.65508,23.265543
УЛ. МИЛИН КАМЪК,2045,42.67463,23.329032
УЛ. МИЛИН КАМЪК,2046,42.674554,23.328919
УЛ. КОСМОНАВТ - ПО ЖЕЛАНИЕ,2047,42.712807,23.166412
УЛ. КОСМОНАВТ - ПО ЖЕЛАНИЕ,2048,42.712489,23.16571
УЛ. МОНТЕВИДЕО,2049,42.672137,23.251324
УЛ. МОНТЕВИДЕО,2050,42.671587,23.251792
УЛ. НАДЕЖДА,2051,42.724932,23.281653
УЛ. НАДЕЖДА,2052,42.724572,23.281374
УЛ. НАРОДЕН ГЕРОЙ,2053,42.674453,23.260421
УЛ. НАРОДНО ХОРО,2054,42.67993,23.269007
УЛ. НАРОДНО ХОРО,2055,42.680304,23.269043
УЛ. НАРОДНО ХОРО,2056,42.680562,23.269183
УЛ. НАРОДНО ХОРО,2057,42.680909,23.269516
УЛ. Н. КОПЕРНИК,2059,42.679253,23.361532
УЛ. Н. КОПЕРНИК,2060,42.679303,23.36078
УЛ. НИШАВА,2062,42.66994,23.303908
УЛ. НИШАВА,2063,42.66932,23.30361
ХИТ МАРКЕТ ЛЮЛИН,2064,42.730565,23.265784
ХИТ МАРКЕТ ЛЮЛИН,2065,42.73123,23.266655
УЛ. ОБИКОЛНА,2066,42.648328,23.403802
МЕТРОСТАНЦИЯ ОВЧА КУПЕЛ,2067,42.682325,23.270692
МЕТРОСТАНЦИЯ ОВЧА КУПЕЛ,2068,42.682449,23.270921
УЛ. ОБИКОЛНА,2069,42.648746,23.404504
УЛ. ОБОРИЩЕ,2070,42.693628,23.355463
УЛ. ОБОРИЩЕ,2071,42.692659,23.354965
УЛ. ОБОРИЩЕ,2072,42.693733,23.355247
УЛ. ОБОРИЩЕ,2073,42.692658,23.355185
УЛ. ОБОРИЩЕ,2074,42.69319,23.354621
УЛ. ОДРИН,2075,42.699442,23.30389
УЛ. ОДРИН,2076,42.699423,23.304288
УЛ. ОДРИН,2077,42.702156,23.304555
УЛ. ОДРИН,2078,42.702109,23.305064
УЛ. ОПЪЛЧЕНСКА,2079,42.712572,23.316271
УЛ. ОПЪЛЧЕНСКА,2080,42.713417,23.315717
УЛ. ОПЪЛЧЕНСКА,2081,42.706032,23.312991
УЛ. ОПЪЛЧЕНСКА,2082,42.70617,23.311047
УЛ. ОПЪЛЧЕНСКА,2083,42.701154,23.310714
УЛ. ОПЪЛЧЕНСКА,2084,42.698658,23.308904
УЛ. ОПЪЛЧЕНСКА,2085,42.69853,23.31002
УЛ. ОПЪЛЧЕНСКА,2086,42.701205,23.310184
УЛ. ОПЪЛЧЕНСКА,2087,42.705383,23.313486
УЛ. ОРЕХОВА ГОРА,2088,42.669011,23.297913
УЛ. ОРЕХОВА ГОРА,2089,42.669549,23.297461
УЛ. ОРИОН,2090,42.718209,23.279383
УЛ. ОРИОН,2091,42.718162,23.27796
УЛ. ОРИОН,2092,42.717133,23.27827
УЛ. ОРИОН,2093,42.717088,23.279512
УЛ. ОРФЕЙ,2094,42.760895,23.422864
УЛ. ОРФЕЙ,2095,42.760716,23.422845
УЛ. ОРЯХОВО,2096,42.710971,23.291992
УЛ. ОРЯХОВО,2097,42.71032,23.292804
УЛ. ОСВОБОЖДЕНИЕ,2098,42.694517,23.292279
УЛ. ОСВОБОЖДЕНИЕ,2099,42.694454,23.292651
УЛ. ОСТРОВО,2100,42.704279,23.35247
УЛ. ОХРИД,2101,42.709866,23.313929
УЛ. ОХРИД,2102,42.708479,23.312499
УЛ. ПЛАНИНЕЦ,2103,42.662706,23.25365
УЛ. ПЛАНИНЕЦ,2104,42.662531,23.253284
УЛ. ОХРИД,2105,42.708749,23.313171
УЛ. ПАНАЙОТ ХИТОВ,2106,42.703795,23.347067
МЕТРОСТАНЦИЯ ХАДЖИ ДИМИТЪР,2107,42.703422,23.354557
МЕТРОСТАНЦИЯ ХАДЖИ ДИМИТЪР,2108,42.70298,23.352231
УЛ. НИШАВА,2109,42.681308,23.289731
УЛ. НИШАВА,2110,42.681364,23.289762
УЛ. ПИРОТСКА,2111,42.701362,23.310392
УЛ. ПИРОТСКА,2112,42.700489,23.316129
УЛ. ПИРОТСКА,2113,42.700096,23.316063
УЛ. ПИРОТСКА,2114,42.701816,23.310697
НАДЛЕЗ НАДЕЖДА,2115,42.713747,23.305835
НАДЛЕЗ НАДЕЖДА,2116,42.714046,23.308203
УЛ. ПОДУЕНСКА,2117,42.700768,23.35148
УЛ. ПОДУЕНСКА,2118,42.700611,23.351459
УЛ. ПОЛК.СТ.БАЧИЙСКИ,2119,42.664367,23.243669
УЛ. ПОЛК.СТ.БАЧИЙСКИ,2120,42.664714,23.243801
УЛ. ПОП БОГОМИЛ,2121,42.70344,23.328985
УЛ. ПОП БОГОМИЛ,2122,42.703145,23.328914
УЛ. ПОП ГРУЙО,2123,42.707079,23.380192
УЛ. ПОП ГРУЙО,2124,42.710894,23.380174
Ж.К. ЛЕВСКИ-В,2125,42.709828,23.377865
УЛ. ПОП ГРУЙО,2126,42.702384,23.381771
УЛ. ПОП ГРУЙО,2127,42.707141,23.379221
УЛ. ПОП ГРУЙО,2128,42.710491,23.3816
УЛ. ПОП ГРУЙО,2129,42.702342,23.382305
УЛ. ПОП ГРУЙО,2130,42.702354,23.382623
УЛ. ПОП ГРУЙО,2131,42.70217,23.382413
УЛ. ПОРУЧИК ГР. ЗАГОРСКИ,2132,42.717845,23.240607
УЛ. ПОРУЧИК ГР. ЗАГОРСКИ,2133,42.718411,23.239855
УЛ. ПРОФ. Д. АТАНАСОВ,2134,42.674832,23.290288
УЛ. ПРОФ. Д. АТАНАСОВ,2135,42.675488,23.289569
БУЛ. ГОЦЕ ДЕЛЧЕВ,2136,42.675429,23.287968
УЛ. ПРОБУДА,2138,42.737579,23.327194
УЛ. ПРОБУДА,2139,42.737648,23.327243
УЛ. ПРОМИШЛЕНА,2140,42.689859,23.250792
УЛ. ПРОМИШЛЕНА,2141,42.689713,23.248705
УЛ. ПРОСВЕТА,2142,42.725057,23.317662
УЛ. ПРОСВЕТА,2143,42.724526,23.316018
УЛ. ПРОСВЕТА,2144,42.725755,23.317229
УЛ. ПРОФ. ВАЙГАНД,2145,42.696475,23.280485
УЛ. ПРОФ. ВАЙГАНД,2146,42.696152,23.280918
УЛ. ПРОФ. ИВ. ШИШМАНОВ,2147,42.707439,23.359333
УЛ. ПРОФ. И. ГЕОРГОВ,2148,42.725101,23.318795
УЛ. ПРОФ. И. ГЕОРГОВ,2149,42.724718,23.322211
УЛ. РАВНЕЦ - ПО ЖЕЛАНИЕ,2150,42.789549,23.330659
УЛ. РАВНЕЦ - ПО ЖЕЛАНИЕ,2151,42.789547,23.32995
УЛ. РАДЕЦКИ,2152,42.642999,23.282338
УЛ. РАДЕЦКИ,2153,42.643356,23.281168
УЛ. РЕЗБАРСКА,2154,42.710254,23.355236
УЛ. РЕЗБАРСКА,2155,42.710417,23.354781
УЛ. РЕСЕНСКА ПОЛЯНА,2156,42.709439,23.345216
УЛ. РЕСЕНСКА ПОЛЯНА,2157,42.709609,23.345314
УЛ. РИЛСКА ОБИТЕЛ,2158,42.701539,23.378913
УЛ. РИЛСКА ОБИТЕЛ,2159,42.701306,23.376618
УЛ. РИЛСКА ОБИТЕЛ,2160,42.701716,23.379128
УЛ. РИЛСКА ОБИТЕЛ,2161,42.701496,23.376853
Ж.К. КРАСНА ПОЛЯНА,2162,42.697333,23.277207
Ж.К. КРАСНА ПОЛЯНА,2163,42.697121,23.277241
УЛ. РОЯК,2164,42.713376,23.34281
УЛ. РОЯК,2165,42.712325,23.343676
УЛ. ЛУИ ПАСТЬОР,2166,42.720825,23.273042
УЛ. ЛУИ ПАСТЬОР,2167,42.720306,23.273713
УЛ. САН СТЕФАНО,2168,42.696494,23.339916
УЛ. САН СТЕФАНО,2169,42.696511,23.340374
УЛ. СВ.СВ. КИРИЛ И МЕТОДИЙ,2170,42.705057,23.311708
УЛ. СВ.СВ. КИРИЛ И МЕТОДИЙ,2171,42.705023,23.311374
УЛ. СИНЧЕЦ,2172,42.606405,23.470032
УЛ. СИНЧЕЦ,2173,42.606343,23.469992
УЛ. СИНЯТА СКАЛА - ПО ЖЕЛАНИЕ,2174,42.655888,23.233221
УЛ. СИНЯТА СКАЛА - ПО ЖЕЛАНИЕ,2175,42.655772,23.232326
УЛ. СНЕЖНИК,2176,42.721481,23.331678
УЛ. СНЕЖНИК,2177,42.721903,23.331125
УЛ. СТ. ДОСПЕВСКИ,2180,42.707514,23.383303
УЛ. СТ. ДОСПЕВСКИ,2181,42.706979,23.382711
УЛ. СТ. ДОСПЕВСКИ,2182,42.710259,23.386186
СЕЛО ПОДГУМЕР,2183,42.806878,23.404391
УЛ. СТАРА ПЛАНИНА,2184,42.729503,23.564765
УЛ. СТАРА ПЛАНИНА,2185,42.729582,23.564578
УЛ. СТАРА ПЛАНИНА,2186,42.850961,23.266916
УЛ. СТАРА ПЛАНИНА,2187,42.850362,23.267255
СЕЛО ПОДГУМЕР,2188,42.806864,23.404316
УЛ. СТОИЛ ВОЙВОДА,2189,42.688888,23.362783
УЛ. СТОЯН МИХАЙЛОВСКИ,2190,42.672429,23.335549
УЛ. СТОЯН МИХАЙЛОВСКИ,2191,42.671826,23.336675
УЛ. СТЕФАН ПЕШЕВ,2192,42.666415,23.244048
УЛ. СТЕФАН ПЕШЕВ,2193,42.665825,23.243907
УЛ. СУЛТАН ТЕПЕ,2194,42.691978,23.35131
УЛ. СУЛТАН ТЕПЕ,2195,42.691561,23.351423
БЛ. 13 Ж.К.ЗАПАДЕН ПАРК,2196,42.701824,23.281618
БЛ. 13 Ж.К.ЗАПАДЕН ПАРК,2197,42.701874,23.281713
УЛ. СУХОДОЛСКИ ПЪТ - ПО ЖЕЛАНИЕ,2198,42.715726,23.22133
УЛ. СУХОДОЛСКИ ПЪТ - ПО ЖЕЛАНИЕ,2199,42.715357,23.220978
УЛ. ТЕМЕНУГА,2200,42.826782,23.35342
УЛ. ТЕМЕНУГА,2203,42.826879,23.353428
УЛ. ТЕОФИЛ ГАНЕВ,2204,42.709687,23.357359
УЛ. ТИМОК,2205,42.705715,23.328573
УЛ. Т. КАБЛЕШКОВ,2206,42.66484,23.287182
УЛ. Т. КАБЛЕШКОВ,2207,42.67015,23.276931
УЛ. Т. КАБЛЕШКОВ,2208,42.668623,23.276434
УЛ. Т. КАБЛЕШКОВ,2210,42.669248,23.27738
УЛ. Т. КАБЛЕШКОВ,2211,42.665757,23.28836
УЛ. Т. КАБЛЕШКОВ,2212,42.664675,23.287274
УЛ. Т. КАБЛЕШКОВ,2213,42.66577,23.288669
УЛ. ТОДОРИНИ КУКЛИ,2214,42.702175,23.358622
УЛ. ТОДОРИНИ КУКЛИ,2215,42.701441,23.35986
УЛ. ТОДОРИНИ КУКЛИ,2216,42.702405,23.360927
УЛ. ТОДОРИНИ КУКЛИ,2217,42.703171,23.359637
КЕНДИ ООД - ПО ЖЕЛАНИЕ,2218,42.717302,23.183491
КЕНДИ ООД - ПО ЖЕЛАНИЕ,2219,42.717447,23.183825
УЛ. ТЪРНОВО,2220,42.722477,23.262013
УЛ. ТЪРНОВО,2221,42.722927,23.261368
УЛ. УОШБЪРН,2222,42.706444,23.346975
УЛ. УОШБЪРН,2223,42.707094,23.345014
УЛ. УРАЛ,2224,42.677349,23.240926
УЛ. УЧЕНИЧЕСКА,2225,42.712337,23.150557
УЛ. ХАЙДУТ СИДЕР,2226,42.708916,23.286832
УЛ. ХАЙДУТ СИДЕР,2227,42.708672,23.288129
УЛ. ХАЙДУТ СИДЕР,2228,42.708636,23.288081
УЛ. ХАЙДУТ СИДЕР,2229,42.708767,23.286921
УЛ. ХАН КУБРАТ,2231,42.726432,23.289935
УЛ. ХАН КУБРАТ,2232,42.727189,23.28999
УЛ. ХАН КУБРАТ,2233,42.728306,23.289083
УЛ. ХЕМУС,2234,42.683529,23.354142
УЛ. ХЕМУС,2235,42.683571,23.353958
УЛ. ХОРИЗОНТ,2236,42.737642,23.336622
УЛ. ХОРИЗОНТ,2237,42.73765,23.336777
УЛ. ХРИСТО БОТЕВ,2238,42.760868,23.201835
УЛ. ХРИСТО БОТЕВ,2239,42.760788,23.202203
УЛ. ЦАР БОРИС ІІІ,2243,42.654326,23.464882
УЛ. ЦАР БОРИС ІІІ,2244,42.654182,23.464728
УЛ. БОР - ПО ЖЕЛАНИЕ,2245,42.707264,23.155218
УЛ. БОР - ПО ЖЕЛАНИЕ,2246,42.70628,23.152941
УЛ. ЦАР СИМЕОН,2248,42.705278,23.297805
УЛ. ЦАР СИМЕОН,2249,42.70562,23.298804
УЛ. ЦАР СИМЕОН,2250,42.705274,23.298641
УЛ. ЦАР СИМЕОН,2251,42.705162,23.298232
УЛ. ЦВЕТНА ГРАДИНА,2255,42.634059,23.409662
УЛ. ЦВЕТНА ГРАДИНА,2256,42.633887,23.409154
УЛ. ЦВЕТНА ГРАДИНА,2257,42.632803,23.409038
УЛ. ЧЕРКОВНА,2258,42.693417,23.352109
УЛ. ЧЕРКОВНА,2259,42.693616,23.351069
УЛ. РАЙСКА ГРАДИНА,2260,42.660956,23.249033
УЛ. РАЙСКА ГРАДИНА,2261,42.660828,23.248514
УЛ. ЮРИЙ ГАГАРИН,2262,42.732778,23.553846
УЛ. ЮРИЙ ГАГАРИН,2263,42.7327,23.554002
УНИКАЛНИ КОНСТРУКЦИИ - ПО ЖЕЛАНИЕ,2264,42.760573,23.487677
УНИКАЛНИ КОНСТРУКЦИИ - ПО ЖЕЛАНИЕ,2265,42.75921,23.486827
МАНАСТИР СВ. НИКОЛА,2266,42.554541,23.428437
МАНАСТИР СВ. НИКОЛА - ПО ЖЕЛАНИЕ,2267,42.554603,23.42827
КАЛФИН ДОЛ - ПО ЖЕЛАНИЕ,2268,42.595718,23.359552
КАЛФИН ДОЛ,2269,42.595418,23.359568
129-ТО ОУ,2270,42.693975,23.347535
129-ТО ОУ,2271,42.693987,23.347998
90-ТО СОУ,2272,42.726772,23.252771
144-ТО СОУ,2273,42.643402,23.379574
153-ТА ГИМНАЗИЯ,2274,42.737143,23.310141
153-ТА ГИМНАЗИЯ,2275,42.735797,23.310394
144-ТО СОУ,2276,42.64476,23.378717
90-ТО СОУ,2277,42.726377,23.253213
61-ВО ОУ,2278,42.737469,23.290295
64-ТО ОУ,2279,42.616138,23.337481
61-ВО ОУ,2280,42.737952,23.29029
177-МО ОУ,2281,42.782721,23.387919
177-МО ОУ,2282,42.782493,23.387365
152-РО ОУ,2283,42.603248,23.175481
152-РО ОУ,2284,42.603553,23.175777
64-ТО ОУ,2285,42.616373,23.337473
УЛ. УЧИЛИЩНА,2286,42.76105,23.429595
160 -ТО ОУ,2287,42.761957,23.430645
160-ТО ОУ,2288,42.762444,23.431417
СЕЛСКОСТОПАНСКА АКАДЕМИЯ,2289,42.696806,23.264473
СЕЛСКОСТОПАНСКА АКАДЕМИЯ,2290,42.696832,23.264943
ФОНДОВИ ЖИЛИЩА,2292,42.75316,23.329125
ФОНДОВИ ЖИЛИЩА,2293,42.753741,23.329205
ФОХАР АД,2294,42.64249,23.285898
ФОХАР АД,2295,42.642622,23.285889
СТАРАТА ФУРНА,2296,42.842891,23.322382
СТАРАТА ФУРНА,2297,42.843145,23.322124
ТЪРГОВСКИ К-С НАДЕЖДА,2298,42.726456,23.302727
ТЪРГОВСКИ К-С НАДЕЖДА,2299,42.726541,23.302372
ХАНЧЕТО - ПО ЖЕЛАНИЕ,2300,42.62679,23.358609
ХАНЧЕТО,2301,42.707974,23.52029
ХАНЧЕТО,2302,42.707401,23.519622
ХАНЧЕТО - ПО ЖЕЛАНИЕ,2304,42.626485,23.358742
ХИПЕРМАРКЕТ БИЛА,2306,42.7204,23.255669
ХИПОДРУМА БАНКЯ,2307,42.722619,23.201153
ХИПОДРУМА БАНКЯ,2308,42.722671,23.200699
ХЛАДИЛЕН ЗАВОД,2310,42.708736,23.334584
ХЛАДИЛЕН ЗАВОД,2311,42.708242,23.334088
ХЛАДИЛЕН ЗАВОД,2312,42.708498,23.332272
ХЛЕБОЗАВОДА,2313,42.660343,23.320717
ХЛЕБОЗАВОДА,2314,42.660462,23.320495
ХЛЕБОЗАВОД БОТУНЕЦ АД,2315,42.737391,23.510528
ХЛЕБОЗАВОДА - ПО ЖЕЛАНИЕ,2316,42.717942,23.187541
ХЛЕБОЗАВОДА - ПО ЖЕЛАНИЕ,2317,42.718073,23.188187
ХМС,2318,42.655216,23.381439
ХМС,2319,42.655597,23.382263
ХОТЕЛ МАКСИ,2320,42.641735,23.334563
ХОТЕЛ МАКСИ,2321,42.642957,23.334462
ХОТЕЛ ГОРНА БАНЯ,2322,42.677483,23.237521
ХОТЕЛ ГОРНА БАНЯ,2323,42.676655,23.238582
ХОТЕЛ ПЛИСКА,2324,42.676088,23.359261
ХОТЕЛ ПЛИСКА,2325,42.676658,23.359882
ХОТЕЛ ПЛИСКА,2326,42.675022,23.359154
ХОТЕЛ ПЛИСКА,2327,42.675558,23.358893
ХОТЕЛ ХЕМУС,2329,42.678297,23.322587
ХОТЕЛ ХЕМУС,2330,42.679118,23.321839
ЦАРЕВА МАХАЛА,2331,42.524497,23.360173
ЦЕНТРАЛЕН ГРОБИЩЕН ПАРК,2332,42.711369,23.336954
ЦЕНТРАЛЕН ГРОБИЩЕН ПАРК,2333,42.711577,23.337146
ЦЕНТРАЛНИ ХАЛИ,2334,42.699872,23.323768
ЦЕНТРАЛНИ ХАЛИ,2335,42.699914,23.323745
ЦЕНТРАЛНИ ХАЛИ,2336,42.700021,23.322414
ЦЕНТРАЛНИ ХАЛИ,2337,42.700386,23.322468
ЦЕНТЪР КВ. АБДОВИЦА,2338,42.664463,23.423522
ЦЕНТЪР КВ. АБДОВИЦА,2339,42.66479,23.423022
ЦЕНТЪР С. ВОЙНЕГОВЦИ,2340,42.801815,23.422443
ЦЕНТЪР С. ВОЙНЕГОВЦИ,2341,42.80125,23.422054
ЦЕНТЪР ПО ХИГИЕНА,2342,42.682632,23.301717
ЦЕНТЪР ПО ХИГИЕНА,2343,42.681825,23.301485
ЦЕНТЪР С. ПОДГУМЕР,2344,42.802862,23.402818
ЦЕНТЪР С. ПОДГУМЕР,2345,42.802676,23.402534
ЦЕНТЪР КВ.ФИЛИПОВЦИ,2346,42.719721,23.221192
ЦЕНТЪР КВ.ФИЛИПОВЦИ,2347,42.719637,23.222231
ЦЕНТЪР С. МРАМОР,2348,42.784569,23.273281
НАЧАЛО С. ЖИТЕН,2349,42.811492,23.256077
НАЧАЛО С. ЖИТЕН,2350,42.811286,23.256131
ТЕХНИЧЕСКА БИБЛИОТЕКА,2351,42.664504,23.360711
ТЕХНИЧЕСКА БИБЛИОТЕКА,2352,42.664295,23.359527
НЦ ПО РАДИОБИОЛОГИЯ - ПО ЖЕЛАНИЕ,2353,42.632315,23.35482
НЦ ПО РАДИОБИОЛОГИЯ,2354,42.632202,23.354792
УЛ. ОДЕСА,2355,42.725871,23.344608
УЛ. ОДЕСА,2356,42.725539,23.344333
УЛ. ПРОФ. АЛ. СТАНИШЕВ,2357,42.723913,23.259183
УЛ. РАЛИЦА,2358,42.603139,23.4752
УЛ. РАЛИЦА,2359,42.603293,23.474636
УЛ. ЛЮЛЯК,2360,42.677657,23.464715
УЛ. ЛЮЛЯК,2361,42.677555,23.464622
ПЛ. ВИТОША,2362,42.756141,23.429752
ПЛ. ВИТОША,2363,42.756019,23.429955
УЛ. ПРОФ. АЛ. СТАНИШЕВ,2364,42.722636,23.257575
ЧИТАЛИЩЕ Д. ЧИНТУЛОВ,2365,42.662301,23.345371
ЧИТАЛИЩЕ Д. ЧИНТУЛОВ,2366,42.663269,23.344748
ЧИТАЛИЩЕ ОТЕЦ ПАИСИЙ,2367,42.692683,23.359956
ЧИТАЛИЩЕ ОТЕЦ ПАИСИЙ,2368,42.692514,23.359427
ДОМ НА КУЛТУРАТА ИСКЪР,2369,42.664652,23.39897
ЦЪРКВАТА СВ. ГЕОРГИ,2370,42.69674,23.222963
ЦЪРКВАТА СВ. ГЕОРГИ,2371,42.696667,23.223932
ДОМ НА КУЛТУРАТА ИСКЪР,2372,42.664892,23.399378
МЕТРОСТАНЦИЯ БИЗНЕС ПАРК,2373,42.630625,23.373281
МЕТРОСТАНЦИЯ БИЗНЕС ПАРК,2374,42.629938,23.374134
ШЛАКОВ ЦЕХ,2375,42.736428,23.554048
ШЛАКОВ ЦЕХ,2376,42.736664,23.554012
ШУМАКО - ПО ЖЕЛАНИЕ,2377,42.601465,23.350062
ШУМАКО - ПО ЖЕЛАНИЕ,2378,42.601246,23.350981
ЮЖЕН ПАРК,2379,42.67501,23.307915
ЮЖЕН ПАРК,2380,42.674601,23.30935
СТУДЕНТСКИ ГРАД,2381,42.645278,23.333614
СТУДЕНТСКИ ГРАД,2382,42.646013,23.334359
ЯЗ. СУХОДОЛ,2383,42.706307,23.230398
ЯЗ. МАЛО БУЧИНО,2384,42.697049,23.191255
МАГАЗИН МОСЮ БРИКОЛАЖ,2385,42.732287,23.249448
УЛ. ОБРАДОВСКИ ПЪТ,2386,42.747866,23.350725
УЛ. ОБРАДОВСКИ ПЪТ,2387,42.747602,23.350509
БЛ. 442 Ж.К. МЛАДОСТ-4,2388,42.630602,23.379034
БЛ. 442 Ж.К. МЛАДОСТ-4,2389,42.630623,23.378128
БИЗНЕС ПАРК СОФИЯ,2390,42.628637,23.375147
БИЗНЕС ПАРК СОФИЯ,2391,42.628737,23.375038
БЛ. 472 Ж.К. МЛАДОСТ-4,2392,42.627205,23.378649
БЛ. 472 Ж.К. МЛАДОСТ-4,2393,42.627119,23.37862
БЛ. 480 Ж.К. МЛАДОСТ-4,2394,42.626588,23.381626
БЛ. 480 Ж.К. МЛАДОСТ-4,2395,42.626362,23.382368
143-ТО ОУ,2396,42.701954,23.355406
Ж.К. ЛЮЛИН-8,2397,42.722952,23.261715
БЛ. 539 Ж.К.ЛЮЛИН-5,2398,42.711564,23.241631
ЗАПАДЕН ПАРК,2399,42.715808,23.283829
УЛ. ВАСИЛ ЛЕВСКИ,2401,42.600589,23.49616
УЛ. ВАСИЛ ЛЕВСКИ,2402,42.600638,23.495988
МОСТА НА Р.БЛАЗНА БАРА,2403,42.597552,23.50229
МОСТА НА Р.БЛАЗНА БАРА,2404,42.597526,23.502185
ШКОЛА БЧК,2405,42.595096,23.507709
ПЪТЯ ЗА ЛЕТИЩЕ ВРАЖДЕБНА,2407,42.706677,23.407362
ХИПЕРМАРКЕТ ПРАКТИКЕР,2408,42.641653,23.409079
ХИПЕРМАРКЕТ ПРАКТИКЕР,2409,42.641173,23.409877
УЛ. ПРОЛЕТ,2410,42.630557,23.194051
УЛ. ПРОЛЕТ,2411,42.630923,23.194016
ЦЕНТЪР ДОЛНИ ЛОЗЕН,2412,42.603634,23.494099
НАЧАЛО ДОЛНИ ЛОЗЕН,2413,42.608066,23.497726
УЛ. МЛАДОСТ - ПО ЖЕЛАНИЕ,2415,42.799976,23.400863
УЛ. МЛАДОСТ - ПО ЖЕЛАНИЕ,2416,42.799801,23.40079
БЛ. 226 Ж.К. ДРУЖБА-2,2417,42.654199,23.401267
БУЛ. ЦАРИЦА ЙОАНА,2418,42.711381,23.271894
БУЛ. ЦАРИЦА ЙОАНА,2419,42.711404,23.271393
УЛ. ПЛОВДИВ,2420,42.708793,23.299669
УЛ. ПЛОВДИВ,2421,42.708961,23.299798
УЛ. ФЕЛИКС КАНИЦ,2423,42.684599,23.297578
Ж.К. ДРУЖБА -1,2424,42.654352,23.411519
АВТОСТАНЦИЯ ИЗТОК,2427,42.704253,23.386482
АВТОСТАНЦИЯ ИЗТОК,2428,42.703888,23.386479
УЛ. ХРИСТО СИЛЯНОВ,2429,42.731725,23.296726
Ж.К. ЛЕВСКИ-Г,2430,42.712171,23.380225
БУЛ. БРЮКСЕЛ,2432,42.663998,23.389471
БУЛ. БРЮКСЕЛ,2433,42.663679,23.389114
Ж. К. ОБЕЛЯ 1,2434,42.736508,23.267947
МОСТА НА Р. ИСКЪР КВ. ВРАЖДЕБНА,2439,42.710259,23.419025
МОСТА НА Р. ИСКЪР КВ. ВРАЖДЕБНА,2440,42.710261,23.418846
КАНТОНА,2441,42.708598,23.432637
БЛ. 119 Ж.К. ОБЕЛЯ-1,2442,42.736675,23.272133
БЛ. 119 Ж.К. ОБЕЛЯ-1,2443,42.737725,23.273414
БЛ. 119 Ж.К. ОБЕЛЯ-1,2448,42.737466,23.272264
Ж.К. МАГНОЛИЯ - ПО ЖЕЛАНИЕ,2449,42.648748,23.242671
Ж.К. МАГНОЛИЯ - ПО ЖЕЛАНИЕ,2450,42.648806,23.242715
РЕСТОРАНТ АЛЕКСАНДРИЯ,2451,42.685527,23.403287
РВД,2452,42.684022,23.409294
РВД,2453,42.684354,23.408522
ЛЕТИЩЕ СОФИЯ ТЕРМИНАЛ 2,2454,42.68854,23.415103
ЛЕТИЩЕ СОФИЯ ТЕРМИНАЛ 2,2455,42.687929,23.413316
СТОКОВ БАЗАР ИЛИЯНЦИ,2456,42.740713,23.317838
СТОКОВ БАЗАР ИЛИЯНЦИ,2457,42.74074,23.31764
НИМ,2458,42.657046,23.271778
ПЛОЩАДА КВ. ВРАЖДЕБНА,2459,42.712803,23.419076
ГАРА КУРИЛО,2460,42.81855,23.356335
Ж.К. МЛАДОСТ 1,2463,42.650972,23.367786
УЛ. МАК,2464,42.676118,23.232038
УЛ. МАК,2465,42.676161,23.232512
ТОЛУМСКА МАХАЛА - ПО ЖЕЛАНИЕ,2469,42.597888,23.162119
ТОЛУМСКА МАХАЛА - ПО ЖЕЛАНИЕ,2470,42.598106,23.162233
УЛ. ЙЕРУСАЛИМ,2471,42.654273,23.371707
НОВА ТЕЛЕВИЗИЯ,2473,42.679781,23.400251
НОВА ТЕЛЕВИЗИЯ,2474,42.679522,23.400046
МЕТРОСТАНЦИЯ ХАН КУБРАТ,2477,42.721737,23.307608
УЛ. 5010,2478,42.665742,23.41651
УЛ. 5010,2479,42.665621,23.416801
БАЛКАН СТАР,2480,42.709922,23.350257
УЛ. МАКГАХАН,2481,42.706648,23.35063
УЛ. ВИТИНЯ,2482,42.709057,23.368947
СОФГЕОПРОУЧВАНЕ,2484,42.743161,23.329285
СОФГЕОПРОУЧВАНЕ,2485,42.743537,23.329515
БЛ. 323 Ж.К. МЛАДОСТ-3,2486,42.638795,23.374858
БЛ. 323 Ж.К. МЛАДОСТ-3,2487,42.639272,23.37502
БЛ. 325 Ж.К. МЛАДОСТ-3,2488,42.634657,23.374876
БЛ. 325 Ж.К. МЛАДОСТ-3,2489,42.636031,23.375067
МЕТРОСТАНЦИЯ БИЗНЕС ПАРК,2490,42.629033,23.372814
МЕТРОСТАНЦИЯ БИЗНЕС ПАРК,2491,42.628165,23.373473
КИНО АРЕНА ІІ,2492,42.623769,23.376828
КИНО АРЕНА ІІ,2493,42.623874,23.376027
ТЕХНОПОЛИС Ж.К. МЛАДОСТ-4,2494,42.623537,23.379573
ТЕХНОПОЛИС Ж.К. МЛАДОСТ-4,2495,42.623652,23.379873
ПО ЖЕЛАНИЕ,2496,42.722188,23.128999
ПО ЖЕЛАНИЕ,2497,42.721898,23.129209
УЛ. КАЛО,2498,42.602076,23.174254
УЛ. КАЛО,2499,42.602008,23.174115
УЛ. ВИТОША,2500,42.532155,23.367468
НАЧАЛО ТОЛЕВА МАХАЛА,2501,42.748562,23.223767
УЛ. ХАН ТЕРВЕЛ КВ. МАКСИМ ГОРКИ,2502,42.771002,23.188776
УЛ. ХАН ТЕРВЕЛ КВ. МАКСИМ ГОРКИ,2503,42.770018,23.19017
УЛ. ХАН КРУМ КВ. МАКСИМ ГОРКИ,2504,42.773321,23.184975
УЛ. ХАН КРУМ КВ. МАКСИМ ГОРКИ,2505,42.77305,23.185186
ПЪТЕН ВЪЗЕЛ  КАЛОТИНА,2506,42.776258,23.18028
БЛ. 60 СТУДЕНТСКИ ГРАД,2507,42.643088,23.340789
БЛ. 60 СТУДЕНТСКИ ГРАД,2508,42.643042,23.340036
ХОТЕЛ МАКСИ,2509,42.642953,23.336621
ПО ЖЕЛАНИЕ,2510,42.688077,23.451766
ПО ЖЕЛАНИЕ,2511,42.688276,23.451813
РАЗКЛОНА ЗА С. ДОЛНИ БОГРОВ,2512,42.705152,23.489768
УЛ. ГЕРГАНА,2513,42.782687,23.518617
УЛ. ГЕРГАНА,2514,42.783203,23.518811
УЛ. ПРОСВЕТА,2519,42.724505,23.316257
ЕКОБУЛСОРТ - ПО ЖЕЛАНИЕ,2520,42.730132,23.225435
ЕКОБУЛСОРТ - ПО ЖЕЛАНИЕ,2521,42.730012,23.224853
ПО ЖЕЛАНИЕ - НОВА МАХАЛА,2522,42.695085,23.445779
ПО ЖЕЛАНИЕ - НОВА МАХАЛА,2523,42.695145,23.445655
78-МО СОУ БАНКЯ,2524,42.711701,23.140756
ПРЕЧИСТВАТЕЛНА СТАНЦИЯ,2526,42.753387,23.353237
КВ. РЕПУБЛИКА-2,2527,42.744215,23.231045
83-ТО ОУ ПАНЧАРЕВО,2529,42.595601,23.409121
РАЗКЛОНА ЗА КВ. СЕСЛАВЦИ,2530,42.780298,23.515103
РАЗКЛОНА ЗА КВ. СЕСЛАВЦИ,2531,42.780608,23.515728
ПО ЖЕЛАНИЕ -  ШОЛЦ БЪЛГАРИЯ,2532,42.753238,23.494596
ПО ЖЕЛАНИЕ -  ШОЛЦ БЪЛГАРИЯ,2533,42.753835,23.493763
УЛ. ЛИПА,2534,42.78017,23.518205
УЛ. ЛИПА,2535,42.779976,23.518206
УЛ. СТАРА ПЛАНИНА,2536,42.787155,23.520002
УЛ. СТАРА ПЛАНИНА,2537,42.78719,23.520293
УЛ. МАЛЬОВИЦА,2538,42.82625,23.350911
УЛ. МАЛЬОВИЦА,2539,42.826201,23.3507
УЛ. ЛЮБЛЯНА,2541,42.675341,23.265055
НСБАЛ ПО ОНКОЛОГИЯ,2542,42.663073,23.356426
БУЛ. ЦАР БОРИС ІІІ,2543,42.686544,23.299079
УЛ. ЛЕСНОВСКА РЕКА,2544,42.780918,23.392321
УЛ. ЛЕСНОВСКА РЕКА,2545,42.78094,23.392052
БИСТРИШКИ ТЕРАСИ - ПО ЖЕЛАНИЕ,2546,42.59823,23.368241
БИСТРИШКИ ТЕРАСИ - ПО ЖЕЛАНИЕ,2547,42.598434,23.368502
АВТОБАЗА ИСКЪР,2548,42.677817,23.389561
КОКАЛЯНСКО ХАНЧЕ,2560,42.58252,23.424111
УЛ. АНДРЕЙ ГЕРМАНОВ,2562,42.737574,23.261241
МЕТРОДЕПО,2563,42.73642,23.258799
УЛ. ГЕОРГИ КАРАСЛАВОВ,2564,42.738132,23.255731
СЕВЕРНА ПРОМИШЛЕНА ЗОНА,2565,42.73839,23.258345
УЛ. АНДРЕЙ ГЕРМАНОВ,2566,42.737872,23.261649
Ж.К. ЗАПАДЕН ПАРК,2567,42.701336,23.278113
Ж.К. ЗАПАДЕН ПАРК,2568,42.701459,23.277533
БЛ. 13 Ж.К. ЗАПАДЕН ПАРК,2569,42.701757,23.281728
БЛ. 13 Ж.К. ЗАПАДЕН ПАРК,2570,42.701961,23.28175
БЛ. 38 Ж.К. ЗАПАДЕН ПАРК,2571,42.703579,23.283388
МЕТРОСТАНЦИЯ ВАРДАР,2572,42.706023,23.282861
УЛ. ГЕН. НИКОЛА ЖЕКОВ,2574,42.734288,23.308465
БУЛ. РОЖЕН,2575,42.731841,23.313091
БУЛ. ЛОМСКО ШОСЕ,2576,42.734784,23.29175
УЛ. БЕЛИ ДУНАВ,2577,42.733357,23.288309
102-РО ОУ,2578,42.735934,23.305038
УЛ. ИСКЪРСКО ШОСЕ,2582,42.662749,23.411789
УЛ. ИСКЪРСКО ШОСЕ,2583,42.662693,23.4117
УЛ. МЮНХЕН,2584,42.66026,23.410535
УЛ. МЮНХЕН,2585,42.660037,23.410356
УЛ. АМСТЕРДАМ,2586,42.655341,23.407989
УЛ. АМСТЕРДАМ,2587,42.655078,23.407782
БУЛ. ПРОФ. ЦВ. ЛАЗАРОВ,2588,42.651092,23.405634
БУЛ. ПРОФ. ЦВ. ЛАЗАРОВ,2589,42.65158,23.40584
УЛ. ИНЖ. ГЕОРГИ БЕЛОВ,2590,42.636792,23.399565
УЛ. ИНЖ. ГЕОРГИ БЕЛОВ,2591,42.636465,23.399961
ХЕРМЕС ПАРК,2593,42.660014,23.380843
УЛ. ОБИКОЛНА,2594,42.647884,23.403749
ГЕО МИЛЕВ - ВРЕМЕННА,2595,42.677106,23.370605
Ж.К. ВОДОЛЕЙ,2597,42.640115,23.311886
УЛ. КОМ,2599,42.720369,23.33399
УЛ. КОМ,2600,42.719993,23.334437
УЛ. ГЕН. ГУРКО,2601,42.689842,23.331941
УЛ. ИСКЪР БОЖУРИЩЕ,2602,42.767565,23.194413
ПЪТЕН ВЪЗЕЛ  КАЛОТИНА,2603,42.775462,23.181099
УЛ. ИСКЪР БОЖУРИЩЕ,2604,42.767716,23.193911
КМЕТСТВО БОЖУРИЩЕ,2605,42.763066,23.198222
УЛ. ЛЮБЛЯНА,2606,42.67496,23.263127
УЛ. НАРОДЕН ГЕРОЙ,2607,42.674345,23.258752
АВТОСТАНЦИЯ ИЛИЯНЦИ,2608,42.754556,23.320492
БУЛ. Д-Р ПЕТЪР ДЕРТЛИЕВ,2610,42.71022,23.245689
УЛ. МОГИЛКА,2611,42.822649,23.278061
УЛ. МОГИЛКА,2612,42.822521,23.278451
МАНАСТИР СВ. ТЕОДОР СТРАТИЛАТ - ПО ЖЕЛАНИЕ,2613,42.84258,23.277172
МАНАСТИР СВ. ТЕОДОР СТРАТИЛАТ - ПО ЖЕЛАНИЕ,2614,42.842626,23.276946
СПОРТНА ЗАЛА АРЕНА АРМЕЕЦ,2615,42.671619,23.371697
СПОРТНА ЗАЛА  АРЕНА АРМЕЕЦ,2616,42.671301,23.370547
СЕЛО МИРОВЯНЕ - ПО ЖЕЛАНИЕ,2617,42.790489,23.304118
УЛ. ЕДЕЛВАЙС - ПО ЖЕЛАНИЕ,2618,42.789567,23.309353
УЛ. ЕДЕЛВАЙС - ПО ЖЕЛАНИЕ,2619,42.789702,23.309836
УЛ. КРУШАТА - ПО ЖЕЛАНИЕ,2620,42.792923,23.329337
УЛ. КРУШАТА - ПО ЖЕЛАНИЕ,2621,42.792842,23.329435
АВТОСТАНЦИЯ КНЯЖЕВО,2622,42.658364,23.240475
В.З. МАЛИНОВА ДОЛИНА,2623,42.623693,23.36201
РЕЗИДЕНШЪЛ ПАРК СОФИЯ,2624,42.62314,23.371078
БИЗНЕС ПАРК СОФИЯ,2625,42.624281,23.371091
ОКОЛОВРЪСТЕН ПЪТ,2626,42.623318,23.421384
ГРОБИЩЕН ПАРК КРЕМИКОВЦИ - ПО ЖЕЛАНИЕ,2627,42.780305,23.512161
ГРОБИЩЕН ПАРК КРЕМИКОВЦИ - ПО ЖЕЛАНИЕ,2628,42.780348,23.511961
МИРОВСКО ШОСЕ - ПО ЖЕЛАНИЕ,2629,42.783661,23.309532
МИРОВСКО ШОСЕ - ПО ЖЕЛАНИЕ,2630,42.783397,23.309629
УЛ. ВИШНОВСКА - ПО ЖЕЛАНИЕ,2631,42.792622,23.310588
УЛ. ВИШНОВСКА - ПО ЖЕЛАНИЕ,2632,42.792187,23.310399
УЛ. РАДИВОЯ,2633,42.782134,23.498525
УЛ. РАДИВОЯ,2634,42.781961,23.498321
УЛ. СВ. ПЕТКА,2635,42.78551,23.500497
УЛ. СВ. ПЕТКА,2636,42.785154,23.500256
156-ТО ОУ,2637,42.78491,23.504593
156-ТО ОУ,2638,42.784804,23.505075
БЛ. 8 Ж.К. КРЕМИКОВЦИ,2639,42.781417,23.506201
БЛ. 8 Ж.К. КРЕМИКОВЦИ,2640,42.781472,23.506314
УЛ. МАЕСТРО АТАНАСОВ-ПО ЖЕЛАНИЕ,2641,42.624877,23.308359
УЛ. МАЕСТРО АТАНАСОВ-ПО ЖЕЛАНИЕ,2642,42.625129,23.308245
К-С ЦАРИГРАДСКИ,2643,42.644546,23.400635
БУЛ. ПРОФ.ЦВ. ЛАЗАРОВ,2647,42.67525,23.382022
КИНО АРЕНА ІІ,2648,42.624111,23.37479
МЕСТНОСТ КАМБАНИТЕ,2649,42.622982,23.375461
УЛ. РАЧО ПЕТКОВ КАЗАНДЖИЯТА,2650,42.621933,23.36978
УЛ. РАЧО ПЕТКОВ КАЗАНДЖИЯТА,2651,42.621542,23.369846
Ж.К. СОФИЯ ПАРК,2652,42.619537,23.369036
Ж.К. СОФИЯ ПАРК,2653,42.619732,23.369159
МЕТРОСТАНЦИЯ ВИТОША,2654,42.660115,23.316794
В.З. БУНКЕРА-ПО ЖЕЛАНИЕ,2656,42.6093,23.366475
В.З. БУНКЕРА-ПО ЖЕЛАНИЕ,2657,42.60925,23.366393
УЛ. ХРИСТО СИЛЯНОВ,2658,42.731795,23.295559
МЕТРОСТАНЦИЯ ЛОМСКО ШОСЕ,2659,42.741183,23.286832
МЕТРОСТАНЦИЯ ЛОМСКО ШОСЕ,2660,42.7397,23.287828
МЕТРОСТАНЦИЯ ХАН КУБРАТ,2661,42.722305,23.306987
МЕТРОСТАНЦИЯ ХАН КУБРАТ,2662,42.722532,23.307164
МЕТРОСТАНЦИЯ ХАН КУБРАТ,2663,42.721972,23.307179
БУЛ. РОЖЕН,2664,42.731155,23.314244
ЦЕНТРАЛНА АВТОГАРА,2665,42.70949,23.322036
УЛ. ДЖЕРМАН - ПО ЖЕЛАНИЕ,2666,42.754691,23.318771
УЛ. ДЖЕРМАН - ПО ЖЕЛАНИЕ,2667,42.755422,23.318917
БУЛ. РОЖЕН,2674,42.731018,23.314332
БЛ. 245 Ж.К. ОБЕЛЯ-2,2676,42.746731,23.279682
БЛ. 245 Ж.К. МЛАДОСТ 2,2677,42.647042,23.368046
БЛ. 245 Ж.К. МЛАДОСТ 2,2678,42.646418,23.368056
МЕТРОСТАНЦИЯ Г. М. ДИМИТРОВ,2679,42.662707,23.356199
ХИПЕРМАРКЕТ БИЛА,2681,42.720472,23.255385
УЛ. ЗАХАРИ ПОПОВ,2683,42.764208,23.566371
УЛ. ЗАХАРИ ПОПОВ,2684,42.764412,23.565889
БОТАНИЧЕСКА ГРАДИНА,2685,42.646533,23.300047
ОКОЛОВРЪСТЕН ПЪТ,2686,42.758038,23.268859
ОКОЛОВРЪСТЕН ПЪТ,2687,42.757413,23.269393
Ж.К. БОКАР,2688,42.660913,23.286067
Ж.К. БОКАР,2689,42.659746,23.285284
ТИР ПАРКИНГ- МРАМОР - ПО ЖЕЛАНИЕ,2690,42.772095,23.274593
ТИР ПАРКИНГ-МРАМОР - ПО ЖЕЛАНИЕ,2691,42.771716,23.274522
УЛ. СТОЯН МИХАЙЛОВСКИ,2692,42.67306,23.336884
СЕЛО ДОЛНИ ЛОЗЕН,2693,42.59956,23.499913
МАГИСТРАЛА ХЕМУС,2694,42.708679,23.457405
МАГИСТРАЛА ХЕМУС,2695,42.707045,23.459345
РАЗКЛОНА ЗА ДРАГАЛЕВСКИ МАНАСТИР,2696,42.61994,23.297361
РАЗКЛОНА ЗА ДРАГАЛЕВСКИ МАНАСТИР,2697,42.619802,23.297459
ЗАСЛОН БАЙ КРЪСТЬО,2698,42.604549,23.300718
ЗАСЛОН БАЙ КРЪСТЬО,2699,42.604488,23.300719
ХОТЕЛ МОРЕНИ,2704,42.588767,23.292615
АВТОСТАНЦИЯ ОВЧА КУПЕЛ,2705,42.672805,23.272071
ГАРА ГОРНА БАНЯ,2706,42.67373,23.240178
УЛ. ОБЗОР,2707,42.675912,23.231987
УЛ. ОБЗОР,2708,42.675815,23.232123
КВ. ГОРНА БАНЯ,2709,42.675977,23.228118
КАНТОНА,2710,42.670748,23.220305
КАНТОНА,2711,42.670981,23.220476
ХОТЕЛ-РЕСТОРАНТ,2712,42.667005,23.21838
ХОТЕЛ-РЕСТОРАНТ,2713,42.667339,23.21882
КОШАРИТЕ,2714,42.660966,23.209983
КОШАРИТЕ,2715,42.660786,23.209755
ПО ЖЕЛАНИЕ,2716,42.657378,23.203536
ПО ЖЕЛАНИЕ,2717,42.657305,23.203933
ВИЛИТЕ,2718,42.653388,23.197931
ВИЛИТЕ,2719,42.653339,23.197837
ВЗ. ЛЮЛИН,2720,42.652365,23.19216
ПРОМИШЛЕНА ЗОНА УЛ. В. ЛЕВСКИ - ПО ЖЕЛАНИЕ,2722,42.757644,23.275394
ПРОМИШЛЕНА ЗОНА УЛ. В. ЛЕВСКИ - ПО ЖЕЛАНИЕ,2723,42.757842,23.275475
ПРОМИШЛЕНА ЗОНА Ж.К. ДРУЖБА 1,2724,42.671107,23.38223
РАЗКЛОНА ЗА КВ. ВИДНИТЕ,2725,42.656823,23.456354
ЕЗЕРОТО - СЕЛО КАЗИЧЕНЕ,2726,42.657897,23.454784
ЦЕНТЪР КВ. ВИДНИТЕ,2727,42.659344,23.453727
ЕЗЕРОТО - СЕЛО КАЗИЧЕНЕ,2728,42.658021,23.454738
РАЗКЛОНА ЗА КВ. ВИДНИТЕ,2729,42.656926,23.456522
УЛ. РОДОПСКИ ИЗВОР,2730,42.667368,23.282096
УЛ. РОДОПСКИ ИЗВОР,2731,42.66678,23.283447
ПАЗАР МАЛАШЕВЦИ,2732,42.718555,23.359157
ПАЗАР МАЛАШЕВЦИ,2733,42.718521,23.359216
УЛ. 746 - ПО ЖЕЛАНИЕ,2734,42.695357,23.255144
УЛ. 746 - ПО ЖЕЛАНИЕ,2735,42.695452,23.254782
Ж.К. ХАДЖИ ДИМИТЪР,2736,42.710376,23.349507
В.З. ПОДГУМЕР - ПО ЖЕЛАНИЕ,2737,42.80955,23.404589
В.З. ПОДГУМЕР - ПО ЖЕЛАНИЕ,2738,42.809605,23.404658
МЕТРОСТАНЦИЯ ДРУЖБА,2739,42.658162,23.393642
МЕТРОСТАНЦИЯ ДРУЖБА,2740,42.6571,23.395032
МЕТРОСТАНЦИЯ СОФИЙСКА СВЕТА ГОРА,2741,42.676221,23.409841
МЕТРОСТАНЦИЯ АЛ. МАЛИНОВ,2742,42.64642,23.37697
УЛ. ЗАХАРИ ЗОГРАФ,2743,42.782639,23.273779
УЛ. ЗАХАРИ ЗОГРАФ,2744,42.78283,23.27388
СКЛАДОВА БАЗА ЧЕПИНСКО ШОСЕ,2745,42.7314,23.386267
СКЛАДОВА БАЗА ЧЕПИНСКО ШОСЕ,2746,42.731423,23.386487
НАЧАЛО КВ. ГНИЛЯНЕ,2747,42.805637,23.378502
УЛ. АЛ. СТАМБОЛИЙСКИ,2748,42.820379,23.361139
УЛ. АЛ. СТАМБОЛИЙСКИ,2749,42.820322,23.360808
УЛ. АЛ. СТАМБОЛИЙСКИ - ПО ЖЕЛАНИЕ,2750,42.820535,23.360957
УЛ. АЛ. СТАМБОЛИЙСКИ - ПО ЖЕЛАНИЕ,2751,42.820585,23.360707
МЕТРОСТАНЦИЯ АКАД. А. Т.- БАЛАН,2752,42.640383,23.372798
БЛ. 458 Ж.К. МЛАДОСТ 4,2753,42.637776,23.373129
БЛ. 458 Ж.К. МЛАДОСТ 4,2754,42.634538,23.372892
МЕТРОСТАНЦИЯ ВИТОША,2755,42.659132,23.315838
МЕТРОСТАНЦИЯ ВИТОША,2756,42.657836,23.316035
УЛ. ДИМИТЪР АШОВ,2757,42.656381,23.465377
УЛ. ДИМИТЪР АШОВ,2758,42.656876,23.465638
ПАРАКЛИС СВ. ВМЧК МИНА,2759,42.504846,23.332523
МЕСТНОСТ ЯРЕМА,2760,42.499818,23.333163
ПАРАКЛИС СВ. ВМЧК МИНА,2761,42.504647,23.332646
ЦАРЕВА МАХАЛА,2762,42.524487,23.360806
БУЛ. ЧЕРНИ ВРЪХ,2763,42.65841,23.314694
ЗООПАРКА,2764,42.659123,23.327577
КВ. РЕПУБЛИКА,2765,42.737279,23.243196
БУЛ. Д-Р ПЕТЪР ДЕРТЛИЕВ,2766,42.710335,23.245398
Ж.К. БОРОВО,2767,42.669424,23.279755
УЛ. ГЕРЕНА,2771,42.744601,23.605647
СЕЛО ЖЕЛЯВА,2772,42.744482,23.605478
УЛ. 24-ТИ МАЙ,2773,42.746443,23.604535
БЛ. 350 Ж.К. ЛЮЛИН-3,2774,42.725758,23.243793
ПЪТЕН ВЪЗЕЛ ФИЛИПОВЦИ,2775,42.717925,23.234851
ПЪТЕН ВЪЗЕЛ ФИЛИПОВЦИ,2776,42.717649,23.234038
МБАЛ ТОКУДА БОЛНИЦА,2777,42.667161,23.326721
АДЖИБАДЕМ СИТИ КЛИНИК,2778,42.664656,23.32594
АДЖИБАДЕМ СИТИ КЛИНИК,2779,42.665071,23.326528
МЕТРОСТАНЦИЯ ВИТОША,2780,42.657536,23.316293
ЗООПАРКА,2781,42.657672,23.327982
УЛ. МОГИЛАТА,2782,42.656728,23.327012
УЛ. МОГИЛАТА,2783,42.656535,23.32687
МБАЛ ВИТА,2784,42.656838,23.321093
МБАЛ ВИТА,2785,42.656659,23.320327
УЛ. СОЧИ,2786,42.7095,23.134388
УЛ. СОЧИ,2787,42.709322,23.133906
66-ТО ОДЗ ПАНЧАРЕВО,2788,42.597821,23.404695
Ж.К. ХАДЖИ ДИМИТЪР,2789,42.710598,23.36149
МЕТРОСТАНЦИЯ СОФИЙСКА СВЕТА ГОРА,2790,42.676513,23.410498
РАЗКЛОНА-ЛИФТ СИМЕОНОВО,2791,42.624613,23.349681
РАЗКЛОНА-ЛИФТ СИМЕОНОВО,2792,42.624401,23.350183
БЛ. 648 Ж.К.ЛЮЛИН-6,2793,42.708926,23.255425
БЛ. 648 Ж.К.ЛЮЛИН-6,2794,42.708902,23.255842
СОФИЯ ТЕХ ПАРК,2795,42.665822,23.373066
ЛЕТИЩЕН ЦЕНТЪР СОФИЯ,2797,42.682586,23.401379
ЛЕТИЩЕН ЦЕНТЪР СОФИЯ,2798,42.682023,23.401057
МАНАСТИР СВ. АПОСТОЛИ ПЕТЪР И ПАВЕЛ,2799,42.627311,23.512642
СЕЛО ДОЛНИ ЛОЗЕН,2800,42.59933,23.499608
СЕЛО ДОЛНИ ЛОЗЕН,2801,42.599576,23.49918
МАНАСТИР СВ. АПОСТОЛИ ПЕТЪР И ПАВЕЛ,2802,42.627372,23.512753
ЖП ГАРА ВЕРИЛА,2803,42.641432,23.520977
БУЛ. АКАД. ИВ. ЕВ. ГЕШОВ,2804,42.679357,23.301324
БУЛ. АКАД. ИВ. ЕВ. ГЕШОВ,2805,42.679392,23.301898
ЕСТАКАДА Ж.К. МЛАДОСТ 2,2806,42.649802,23.367101
ЕСТАКАДА Ж.К. МЛАДОСТ 2,2807,42.649609,23.36741
УЛ. РЕПУБЛИКА,2808,42.723686,23.304174
УЛ. ХАН КУБРАТ,2809,42.725153,23.30412
УЛ. ХАН КУБРАТ,2810,42.724849,23.304183
УЛ. САВА ФИЛАРЕТОВ,2811,42.729695,23.299238
УЛ.САВА ФИЛАРЕТОВ,2812,42.729849,23.298806
УЛ. ВАСИЛ ЛЕВСКИ,2814,42.746239,23.606145
УЛ. БОТЕВГРАДСКО ШОСЕ,2816,42.727857,23.557377
УЛ. БОТЕВГРАДСКО ШОСЕ,2817,42.727811,23.557151
УЛ. ВРЪПЛИНА,2818,42.847015,23.271179
ПАМЕТНИКА С. ЯНА,2819,42.727962,23.560273
ПАМЕТНИКА С. ЯНА,2820,42.727912,23.559962
МЕТРОСТАНЦИЯ ХАДЖИ ДИМИТЪР,2821,42.702664,23.353746
УЛ. БРЕЗНИК,2822,42.706076,23.35855
В.З. МАЛИНОВА ДОЛИНА - ПО ЖЕЛАНИЕ,2823,42.617479,23.361046
В.З. МАЛИНОВА ДОЛИНА - ПО ЖЕЛАНИЕ,2824,42.617374,23.36147
БУЛ. ВИТОША,2825,42.695014,23.32001
БУЛ. ВИТОША,2826,42.694966,23.320098
МЕТРОСТАНЦИЯ СУ СВ. КЛИМЕНТ ОХРИДСКИ,2827,42.692016,23.333531
БУЛ. КН. МАРИЯ ЛУИЗА,2829,42.711977,23.318473
БУЛ. КН. МАРИЯ ЛУИЗА,2830,42.712056,23.317343
192 - РО СОУ С. БИСТРИЦА,2831,42.583414,23.359201
192 - РО СОУ С. БИСТРИЦА,2832,42.583329,23.359074
РАЗКЛОНА ЗА С. ГЕРМАН,2833,42.621037,23.420121
РАЗКЛОНА ЗА С. ГЕРМАН,2834,42.621106,23.420298
РАЗКЛОНА ЗА С. ГЕРМАН,2835,42.622042,23.419588
КВ. СИМЕОНОВО,2838,42.612068,23.338925
РЕЗИДЕНШЪЛ ПАРК СОФИЯ,2839,42.62317,23.372474
ЗЛАТНИ МОСТОВЕ,2840,42.610211,23.237224
УЛ. МИЛЕНИУМ,2841,42.710955,23.177083
УЛ. МИЛЕНИУМ,2842,42.710837,23.177203
УЛ. ПЕРУНИКА,2843,42.714266,23.17387
УЛ. ПЕРУНИКА,2844,42.714095,23.174123
Ж.К. ГОЦЕ ДЕЛЧЕВ,2845,42.660431,23.297206
МЕТРОСТАНЦИЯ ГОРНА БАНЯ,2846,42.680055,23.240385
ПЛ. СРЕД СЕЛО,2847,42.661319,23.242751
НАЦИОНАЛНА ФУТБОЛНА  БАЗА,2848,42.655006,23.27761
УЛ. ЧАВДАР МУТАФОВ,2849,42.655585,23.333304
УЛ. ЧАВДАР МУТАФОВ,2850,42.655795,23.333122
МЕТРОСТАНЦИЯ ВИТОША,2857,42.6567,23.317778
ЛОВЕН ПАРК,2859,42.669715,23.332265
УЛ. КИШИНЕВ,2860,42.660475,23.316637
МЕТРОСТАНЦИЯ ВИТОША,2975,42.658421,23.316413
МЕТРОСТАНЦИЯ ВИТОША,2976,42.658421,23.316413
МЕТРОСТАНЦИЯ ДЖЕЙМС БАУЧЕР,2977,42.670625,23.320388
МЕТРОСТАНЦИЯ ДЖЕЙМС БАУЧЕР,2978,42.670625,23.320388
МЕТРОСТАНЦИЯ ЕВРОПЕЙСКИ СЪЮЗ,2979,42.678773,23.321614
МЕТРОСТАНЦИЯ ЕВРОПЕЙСКИ СЪЮЗ,2980,42.678773,23.321614
МЕТРОСТАНЦИЯ НДК,2981,42.688204,23.31906
МЕТРОСТАНЦИЯ НДК,2982,42.688204,23.31906
МЕТРОСТАНЦИЯ СЕРДИКА 2,2983,42.698365,23.321933
МЕТРОСТАНЦИЯ СЕРДИКА 2,2984,42.698365,23.321933
МЕТРОСТАНЦИЯ ЛЪВОВ МОСТ,2985,42.705751,23.323846
МЕТРОСТАНЦИЯ ЛЪВОВ МОСТ,2986,42.705751,23.323846
МЕТРОСТАНЦИЯ ЦЕНТРАЛНА ГАРА,2987,42.71076,23.320605
МЕТРОСТАНЦИЯ ЦЕНТРАЛНА ГАРА,2988,42.71076,23.320605
МЕТРОСТАНЦИЯ КНЯГИНЯ МАРИЯ ЛУИЗА,2989,42.714447,23.312111
МЕТРОСТАНЦИЯ КНЯГИНЯ МАРИЯ ЛУИЗА,2990,42.714447,23.312111
МЕТРОСТАНЦИЯ ХАН КУБРАТ,2991,42.722371,23.307208
МЕТРОСТАНЦИЯ ХАН КУБРАТ,2992,42.722371,23.307208
МЕТРОСТАНЦИЯ НАДЕЖДА,2993,42.72802,23.300879
МЕТРОСТАНЦИЯ НАДЕЖДА,2994,42.72802,23.300879
МЕТРОСТАНЦИЯ БЕЛИ ДУНАВ,2995,42.73593,23.292264
МЕТРОСТАНЦИЯ БЕЛИ ДУНАВ,2996,42.73593,23.292264
МЕТРОСТАНЦИЯ ЛОМСКО ШОСЕ,2997,42.740487,23.287296
МЕТРОСТАНЦИЯ ЛОМСКО ШОСЕ,2998,42.740487,23.287296
МЕТРОСТАНЦИЯ ОБЕЛЯ,2999,42.74106,23.276543
МЕТРОСТАНЦИЯ ОБЕЛЯ,3000,42.74106,23.276543
МЕТРОСТАНЦИЯ СЛИВНИЦА,3001,42.726886,23.261794
МЕТРОСТАНЦИЯ СЛИВНИЦА,3002,42.726886,23.261794
МЕТРОСТАНЦИЯ ЛЮЛИН,3003,42.717909,23.258129
МЕТРОСТАНЦИЯ ЛЮЛИН,3004,42.717909,23.258129
МЕТРОСТАНЦИЯ ЗАПАДЕН ПАРК,3005,42.71117,23.270531
МЕТРОСТАНЦИЯ ЗАПАДЕН ПАРК,3006,42.71117,23.270531
МЕТРОСТАНЦИЯ ВАРДАР,3007,42.705941,23.28484
МЕТРОСТАНЦИЯ ВАРДАР,3008,42.705941,23.28484
МЕТРОСТАНЦИЯ К. ВЕЛИЧКОВ,3009,42.701789,23.298797
МЕТРОСТАНЦИЯ К. ВЕЛИЧКОВ,3010,42.701789,23.298797
МЕТРОСТАНЦИЯ ОПЪЛЧЕНСКА,3011,42.699915,23.310063
МЕТРОСТАНЦИЯ ОПЪЛЧЕНСКА,3012,42.699915,23.310063
МЕТРОСТАНЦИЯ СЕРДИКА,3013,42.697845,23.321161
МЕТРОСТАНЦИЯ СЕРДИКА,3014,42.697845,23.321161
МЕТРОСТАНЦИЯ СУ СВ. КЛИМЕНТ ОХРИДСКИ,3015,42.692483,23.334608
МЕТРОСТАНЦИЯ СУ СВ. КЛИМЕНТ ОХРИДСКИ,3016,42.692483,23.334608
МЕТРОСТАНЦИЯ СТ.ВАСИЛ ЛЕВСКИ,3017,42.685938,23.332409
МЕТРОСТАНЦИЯ СТ.ВАСИЛ ЛЕВСКИ,3018,42.685938,23.332409
МЕТРОСТАНЦИЯ Ф. ЖОЛИО-КЮРИ,3019,42.671506,23.350671
МЕТРОСТАНЦИЯ Ф. ЖОЛИО-КЮРИ,3020,42.671506,23.350671
МЕТРОСТАНЦИЯ Г. М. ДИМИТРОВ,3021,42.662675,23.357841
МЕТРОСТАНЦИЯ Г. М. ДИМИТРОВ,3022,42.662675,23.357841
МЕТРОСТАНЦИЯ МУСАГЕНИЦА,3023,42.658571,23.364492
МЕТРОСТАНЦИЯ МУСАГЕНИЦА,3024,42.658571,23.364492
МЕТРОСТАНЦИЯ МЛАДОСТ-1,3025,42.652947,23.373399
МЕТРОСТАНЦИЯ МЛАДОСТ-1,3026,42.652947,23.373399
МЕТРОСТАНЦИЯ МЛАДОСТ-3,3027,42.646302,23.384784
МЕТРОСТАНЦИЯ МЛАДОСТ-3,3028,42.646302,23.384784
МЕТРОСТАНЦИЯ ЦАРИГРАДСКО ШОСЕ,3029,42.649556,23.393573
МЕТРОСТАНЦИЯ ЦАРИГРАДСКО ШОСЕ,3030,42.649556,23.393573
МЕТРОСТАНЦИЯ ДРУЖБА,3031,42.659258,23.394587
МЕТРОСТАНЦИЯ ДРУЖБА,3032,42.659258,23.394587
МЕТРОСТАНЦИЯ ИСКЪРСКО ШОСЕ,3033,42.668058,23.40212
МЕТРОСТАНЦИЯ ИСКЪРСКО ШОСЕ,3034,42.668058,23.40212
МЕТРОСТАНЦИЯ СОФИЙСКА СВЕТА ГОРА,3035,42.676417,23.41017
МЕТРОСТАНЦИЯ СОФИЙСКА СВЕТА ГОРА,3036,42.676417,23.41017
МЕТРОСТАНЦИЯ ЛЕТИЩЕ СОФИЯ,3037,42.688507,23.416153
МЕТРОСТАНЦИЯ ЛЕТИЩЕ СОФИЯ,3038,42.688507,23.416153
МЕТРОСТАНЦИЯ АЛЕКСАНДЪР МАЛИНОВ,3039,42.647456,23.376574
МЕТРОСТАНЦИЯ АЛЕКСАНДЪР МАЛИНОВ,3040,42.647456,23.376574
МЕТРОСТАНЦИЯ АКАД. АЛ. ТЕОДОРОВ-БАЛАН,3041,42.640711,23.372965
МЕТРОСТАНЦИЯ АКАД. АЛ. ТЕОДОРОВ-БАЛАН,3042,42.640711,23.372965
МЕТРОСТАНЦИЯ БИЗНЕС ПАРК,3043,42.628704,23.373207
МЕТРОСТАНЦИЯ БИЗНЕС ПАРК,3044,42.628704,23.373207
МЕТРОСТАНЦИЯ ХАДЖИ ДИМИТЪР,3309,42.70209,23.351575
МЕТРОСТАНЦИЯ ХАДЖИ ДИМИТЪР,3310,42.70209,23.351575
МЕТРОСТАНЦИЯ ТЕАТРАЛНА,3311,42.697181,23.346866
МЕТРОСТАНЦИЯ ТЕАТРАЛНА,3312,42.697181,23.346866
МЕТРОСТАНЦИЯ ОРЛОВ МОСТ,3315,42.69055,23.33622
МЕТРОСТАНЦИЯ ОРЛОВ МОСТ,3316,42.69055,23.33622
МЕТРОСТАНЦИЯ СВ. ПАТРИАРХ ЕВТИМИЙ,3317,42.688237,23.327664
МЕТРОСТАНЦИЯ СВ. ПАТРИАРХ ЕВТИМИЙ,3318,42.688237,23.327664
МЕТРОСТАНЦИЯ НДК 2,3319,42.689121,23.318026
МЕТРОСТАНЦИЯ НДК 2,3320,42.689121,23.318026
МЕТРОСТАНЦИЯ МЕДИЦИНСКИ УНИВЕРСИТЕТ,3321,42.686537,23.30932
МЕТРОСТАНЦИЯ МЕДИЦИНСКИ УНИВЕРСИТЕТ,3322,42.686537,23.30932
МЕТРОСТАНЦИЯ БУЛ. БЪЛГАРИЯ,3323,42.679241,23.300988
МЕТРОСТАНЦИЯ БУЛ. БЪЛГАРИЯ,3324,42.679241,23.300988
МЕТРОСТАНЦИЯ ЦАР БОРИС III / КРАСНО СЕЛО,3327,42.679228,23.284366
МЕТРОСТАНЦИЯ ЦАР БОРИС III / КРАСНО СЕЛО,3328,42.679228,23.284366
МЕТРОСТАНЦИЯ ОВЧА КУПЕЛ,3329,42.682777,23.270943
МЕТРОСТАНЦИЯ ОВЧА КУПЕЛ,3330,42.682777,23.270943
МЕТРОСТАНЦИЯ МИЗИЯ / НБУ,3331,42.683968,23.257033
МЕТРОСТАНЦИЯ МИЗИЯ / НБУ,3332,42.683968,23.257033
МЕТРОСТАНЦИЯ ОВЧА КУПЕЛ II,3333,42.684747,23.247822
МЕТРОСТАНЦИЯ ОВЧА КУПЕЛ II,3334,42.684747,23.247822
МЕТРОСТАНЦИЯ ГОРНА БАНЯ,3335,42.684117,23.242672
МЕТРОСТАНЦИЯ ГОРНА БАНЯ,3336,42.684117,23.242672
БУЛ. ШИПЧЕНСКИ ПРОХОД,6019,42.67912,23.361758
Ж.К. ГЕО МИЛЕВ,6020,42.676993,23.368714
АВТОСТАНЦИЯ КНЯЖЕВО,6035,42.659005,23.241758
МЕТРОСТАНЦИЯ ОВЧА КУПЕЛ,6037,42.682259,23.270979
МЕТРОСТАНЦИЯ ОВЧА КУПЕЛ,6038,42.682161,23.270629
БЯЛАТА ВОДА - ПО ЖЕЛАНИЕ,6063,42.643235,23.232935
МУЗЕЙ НА МЕЧКАТА - ПО ЖЕЛАНИЕ,6064,42.635485,23.225361
ДЕТСКИ СТАЦИОНАР - ПО ЖЕЛАНИЕ,6065,42.621933,23.225965
ДЕТСКИ СТАЦИОНАР - ПО ЖЕЛАНИЕ,6066,42.621915,23.226125
МУЗЕЙ НА МЕЧКАТА - ПО ЖЕЛАНИЕ,6067,42.635426,23.225432
БЯЛАТА ВОДА - ПО ЖЕЛАНИЕ,6068,42.643226,23.233105
СУ СВ. КЛИМЕНТ ОХРИДСКИ,6085,42.699443,23.315731
18 СУ УИЛЯМ ГЛАДСТОН,6086,42.700892,23.311822
УЛ. Т. КАБЛЕШКОВ,6088,42.669769,23.276326
МЕТРОСТАНЦИЯ МИЗИЯ,6089,42.683806,23.256977
УЛ. ЛУИ ПАСТЬОР,6156,42.713447,23.266205
МЕТРОСТАНЦИЯ ВАРДАР,6158,42.706272,23.28405
УЛ. ЛУИ ПАСТЬОР,6159,42.714092,23.265468
СЕЛО ЧЕПИНЦИ,6166,42.758423,23.426179
УЛ. КАП. Д. СПИСАРЕВСКИ,6178,42.672803,23.388089
УЛ. ОБИКОЛНА,6213,42.648476,23.404153
УЛ. ХАН КУБРАТ,6214,42.727143,23.289202
БУЛ. ЛОМСКО ШОСЕ,6215,42.734671,23.291775
ОБЩИНА ВРЪБНИЦА,6216,42.730943,23.286699
УЛ. ЦАРЕВЕЦ,6217,42.729797,23.293096
ПЛ. ЦЕНТРАЛНА ГАРА,6220,42.710756,23.319083
МЕТРОСТАНЦИЯ К. ВЕЛИЧКОВ,6221,42.701766,23.298479
МЕТРОСТАНЦИЯ ОБЕЛЯ,6240,42.742295,23.277768
МЕТРОСТАНЦИЯ ОБЕЛЯ,6241,42.742219,23.277641
РЕМОНТНА БАЗА,6246,42.713277,23.160144
УЛ. БИСТРИШКО ШОСЕ,6264,42.616536,23.365037
БУЛ. БЪЛГАРИЯ,6275,42.665838,23.286148
УЛ. Г. ИЗМИРЛИЕВ,6276,42.662896,23.292178
УЛ. КОСТЕНСКИ ВОДОПАД,6277,42.661184,23.295614
УЛ. КОСТЕНСКИ ВОДОПАД,6278,42.661838,23.2949
УЛ. Г. ИЗМИРЛИЕВ,6279,42.66354,23.291528
КАТОЛИЧЕСКИ ГРОБИЩЕН ПАРК,6281,42.715408,23.339497
ЦЕНТЪРА БАНКЯ,6297,42.707589,23.146293
ЦЕНТЪР БАНКЯ,6298,42.707436,23.146317
УЛ. ФРИТЬОФ НАНСЕН,6331,42.684318,23.320689
УЛ. УЧЕНИЧЕСКА,6347,42.712444,23.151724
УЛ. ПЪРВА БЪЛГАРСКА АРМИЯ,6382,42.712888,23.343919
ПЛ. ВЪЗРАЖДАНЕ,6401,42.697533,23.315748
БУЛ. ХРИСТО БОТЕВ,6405,42.699062,23.31513
БУЛ. ХРИСТО БОТЕВ,6406,42.698738,23.315941
УЛ. ОПЪЛЧЕНСКА,6407,42.700117,23.309518
УЛ. ОПЪЛЧЕНСКА,6408,42.699726,23.310679
БУЛ. ПРАГА,6411,42.688744,23.31311
БИСТРИШКО ШОСЕ,6429,42.616565,23.364638
МЕТРОСТАНЦИЯ КН. МАРИЯ ЛУИЗА,6430,42.713841,23.313143
ТИХИЯ КЪТ - ПО ЖЕЛАНИЕ,6431,42.638124,23.219737
ТИХИЯ КЪТ - ПО ЖЕЛАНИЕ,6432,42.638176,23.219751
ПЛОЩАД КНЯЗ АЛЕКСАНДЪР I,6435,42.696291,23.326255
ПЛОЩАД КНЯЗ АЛЕКСАНДЪР I,6436,42.696482,23.326229
ПЛ. СВ. АЛЕКСАНДЪР НЕВСКИ,6439,42.695587,23.334071
ПЛ. СВ. АЛЕКСАНДЪР НЕВСКИ,6440,42.69573,23.33394
БУЛ. Д-Р ПЕТЪР ДЕРТЛИЕВ,6452,42.71202,23.268789
МЕТРОСТАНЦИЯ ВАРДАР,6453,42.705574,23.285853
МЕТРОСТАНЦИЯ СЕРДИКА,6454,42.697943,23.320262
ПЛ. КНЯЗ АЛЕКСАНДЪР І,6455,42.695875,23.327288
УЛ. 6-ТИ СЕПТЕМВРИ,6456,42.694518,23.330797
УЛ. 6-ТИ СЕПТЕМВРИ,6457,42.694818,23.330351
ПЛ. КНЯЗ АЛЕКСАНДЪР І,6458,42.696543,23.326167
МЕТРОСТАНЦИЯ СЕРДИКА,6459,42.698168,23.319986
МЕТРОСТАНЦИЯ К. ВЕЛИЧКОВ,6460,42.702142,23.297313
БУЛ. Д-Р ПЕТЪР ДЕРТЛИЕВ,6461,42.711834,23.269569
ПЛ. ВЪЗРАЖДАНЕ,6553,42.6976,23.316379
БУЛ. БЪЛГАРИЯ,6564,42.665754,23.286731
УЛ. БЯЛАТА ЧЕШМА - ПО ЖЕЛАНИЕ,6565,42.645967,23.244724
ДЕНДРАРИУМА - ПО ЖЕЛАНИЕ,6566,42.628254,23.230262
ЗЛАТНИ МОСТОВЕ,6567,42.609734,23.235743
ДЕНДРАРИУМА - ПО ЖЕЛАНИЕ,6568,42.62833,23.230307
УЛ. БЯЛАТА ЧЕШМА - ПО ЖЕЛАНИЕ,6569,42.645929,23.245284
УЛ. ПЪРВА БЪЛГАРСКА АРМИЯ,6575,42.7128,23.34389
РУМЪНСКО ПОСОЛСТВО,6591,42.685065,23.351248
БЛ. 28 Ж.К. ЛЕВСКИ-Г,6599,42.713284,23.384298
Ж.К. ЛЕВСКИ Г,6600,42.711901,23.388112
10-ТИ ДКЦ,6608,42.701403,23.291794
УЛ. ПРЕЗВИТЕР КОЗМА,6614,42.675128,23.322272
УЛ. ПРЕЗВИТЕР КОЗМА,6615,42.6749,23.32212
Ж.К. МЛАДОСТ-1,6616,42.650627,23.367689
МАХАЛА ЛЪКАТА,6617,42.520029,23.354588
ПРИРОДЕН ПАРК ВИТОША,6618,42.507508,23.331937
ПРИРОДЕН ПАРК ВИТОША,6619,42.507576,23.332011
МАХАЛА ЛЪКАТА,6620,42.519887,23.354475
УЛ. БУРЯ,6621,42.669464,23.244729
УЛ. КНЯЖЕВСКА,6622,42.67017,23.242444
УЛ. КНЯЖЕВСКА,6623,42.670106,23.242206
ВАКЛИНОВИ КОШАРИ,6636,42.516775,23.34712
ВАКЛИНОВИ КОШАРИ,6637,42.516988,23.34731
Ж.К. ЛОЗЕНЕЦ,6639,42.675337,23.314283
СЕЛО КАЗИЧЕНЕ,6640,42.662113,23.464556
КМЕТСТВО КАЗИЧЕНЕ,6641,42.659555,23.464821
КМЕТСТВО КАЗИЧЕНЕ,6642,42.66002,23.464883
СЕЛО КАЗИЧЕНЕ,6643,42.662532,23.464622
КВ. КАРПУЗИЦА,6644,42.668186,23.241507
БУЛ. ВАРДАР,6659,42.697242,23.287674
ПЪРВА АГ БОЛНИЦА СВ. СОФИЯ,6660,42.699003,23.290219
134 СУ ДИМЧО ДЕБЕЛЯНОВ,6668,42.70149,23.308461
46-ТО ОУ КОНСТАНТИН ФОТИНОВ,6670,42.704453,23.31724
МЕТРОСТАНЦИЯ БЕЛИ ДУНАВ,6707,42.734913,23.293361
МЕТРОСТАНЦИЯ БЕЛИ ДУНАВ,6708,42.734778,23.293705
АВТОСТАНЦИЯ ГЕО МИЛЕВ,6709,42.678314,23.370513
АВТОСТАНЦИЯ ГЕО МИЛЕВ,6710,42.677959,23.370031